Year,geoid,type,name,centroid_lng,centroid_lat,bbox_arr
2021,3600155,place,"Accord, NY",-74.2302577,41.8014913,"{-74.256049,41.777443,-74.209688,41.818634}"
2021,3600199,place,"Adams, NY",-76.0229784,43.8102182,"{-76.038113,43.801053,-76.007721,43.821665}"
2021,3600232,place,"Adams Center, NY",-75.9886634,43.8699886,"{-76.024322,43.835064,-75.977639,43.887251}"
2021,3600276,place,"Addison, NY",-77.2319899,42.106321,"{-77.248035,42.09095,-77.212623,42.120509}"
2021,3600342,place,"Afton, NY",-75.5247501,42.2291991,"{-75.53542,42.218351,-75.513788,42.239954}"
2021,3600408,place,"Airmont, NY",-74.0979158,41.0991558,"{-74.128829,41.080491,-74.068927,41.115879}"
2021,3600441,place,"Akron, NY",-78.4978033,43.0179568,"{-78.521548,43.000461,-78.472928,43.030287}"
2021,3600457,place,"Akwesasne, NY",-74.6659831,44.968597,"{-74.789511,44.922795,-74.56152,45.006286}"
2021,3601000,place,"Albany, NY",-73.7983532,42.6657453,"{-73.898099,42.61379,-73.723263,42.722379}"
2021,3601011,place,"Albertson, NY",-73.6481547,40.7715889,"{-73.657416,40.762588,-73.640759,40.781797}"
2021,3601033,place,"Albion, NY",-78.1901999,43.2460241,"{-78.21035,43.234129,-78.165827,43.257583}"
2021,3601088,place,"Alden, NY",-78.4946069,42.8988786,"{-78.511332,42.885959,-78.478123,42.911257}"
2021,3601154,place,"Alexander, NY",-78.2591135,42.902021,"{-78.274993,42.897625,-78.242439,42.906123}"
2021,3601187,place,"Alexandria Bay, NY",-75.9227072,44.3372212,"{-75.934294,44.326087,-75.903636,44.35797}"
2021,3601198,place,"Alfred, NY",-77.7896461,42.2543333,"{-77.803223,42.242182,-77.778021,42.265662}"
2021,3601286,place,"Allegany, NY",-78.4896325,42.0906485,"{-78.50261,42.082796,-78.476844,42.101491}"
2021,3601440,place,"Almond, NY",-77.7386085,42.3193252,"{-77.746129,42.309878,-77.731108,42.328849}"
2021,3601517,place,"Altamont, NY",-74.033633,42.7053446,"{-74.050394,42.694163,-74.020964,42.716608}"
2021,3601550,place,"Altmar, NY",-76.0055776,43.5124247,"{-76.022593,43.497061,-75.984982,43.525774}"
2021,3601572,place,"Altona, NY",-73.6595655,44.8900965,"{-73.679066,44.876018,-73.640867,44.90157}"
2021,3601594,place,"Amagansett, NY",-72.1301315,40.9833817,"{-72.162746,40.949476,-72.091413,41.013764}"
2021,3601682,place,"Amenia, NY",-73.5555745,41.8482033,"{-73.570893,41.835761,-73.54198,41.861121}"
2021,3601737,place,"Ames, NY",-74.6016809,42.837469,"{-74.6079,42.833937,-74.596319,42.84194}"
2021,3602044,place,"Amityville, NY",-73.4157871,40.6698436,"{-73.426965,40.6516,-73.404072,40.692867}"
2021,3602066,place,"Amsterdam, NY",-74.1905662,42.9416277,"{-74.222114,42.919027,-74.161342,42.966263}"
2021,3602121,place,"Andes, NY",-74.7803489,42.1876239,"{-74.800813,42.179892,-74.759411,42.199788}"
2021,3602143,place,"Andover, NY",-77.7960981,42.1569955,"{-77.805771,42.149809,-77.785409,42.165241}"
2021,3602176,place,"Angelica, NY",-78.0206449,42.3055058,"{-78.038603,42.296213,-78.002864,42.314957}"
2021,3602198,place,"Angola, NY",-79.0295159,42.6378853,"{-79.039961,42.627973,-79.019,42.647759}"
2021,3602220,place,"Angola on the Lake, NY",-79.0522406,42.6549657,"{-79.063871,42.631011,-79.034771,42.673886}"
2021,3602286,place,"Antwerp, NY",-75.6089707,44.1995381,"{-75.619944,44.190517,-75.595073,44.208133}"
2021,3602308,place,"Apalachin, NY",-76.1567573,42.0638436,"{-76.177306,42.047458,-76.126644,42.083489}"
2021,3602374,place,"Aquebogue, NY",-72.6153968,40.9440126,"{-72.645305,40.928758,-72.581822,40.959493}"
2021,3602407,place,"Arcade, NY",-78.4418086,42.5305944,"{-78.461565,42.519193,-78.406781,42.550648}"
2021,3602506,place,"Ardsley, NY",-73.8392888,41.0134787,"{-73.853521,41.000642,-73.823639,41.024019}"
2021,3602550,place,"Argyle, NY",-73.490739,43.2363452,"{-73.49635,43.231193,-73.48581,43.241444}"
2021,3602583,place,"Arkport, NY",-77.6954819,42.3925958,"{-77.708709,42.386792,-77.685967,42.399411}"
2021,3602616,place,"Arlington, NY",-73.898949,41.6964785,"{-73.909604,41.689527,-73.888385,41.704475}"
2021,3602649,place,"Armonk, NY",-73.7192792,41.1334622,"{-73.733743,41.100336,-73.694626,41.165204}"
2021,3602737,place,"Asharoken, NY",-73.3850603,40.9392698,"{-73.428463,40.910397,-73.345661,40.964397}"
2021,3602902,place,"Athens, NY",-73.8159333,42.2710296,"{-73.8371,42.248468,-73.784116,42.287897}"
2021,3602968,place,"Atlantic Beach, NY",-73.7250967,40.5860567,"{-73.743237,40.580184,-73.716976,40.593458}"
2021,3603001,place,"Attica, NY",-78.2798144,42.8640968,"{-78.295384,42.855469,-78.259983,42.879046}"
2021,3603078,place,"Auburn, NY",-76.5671806,42.9338003,"{-76.600824,42.906603,-76.536915,42.959268}"
2021,3603188,place,"Aurora, NY",-76.6984386,42.7521924,"{-76.709059,42.736238,-76.69022,42.766775}"
2021,3603254,place,"Au Sable Forks, NY",-73.6708875,44.4546995,"{-73.703062,44.440452,-73.647963,44.463036}"
2021,3603320,place,"Averill Park, NY",-73.5538215,42.644407,"{-73.592514,42.622649,-73.522677,42.655468}"
2021,3603331,place,"Avoca, NY",-77.4248348,42.4148832,"{-77.436029,42.399792,-77.409027,42.420739}"
2021,3603353,place,"Avon, NY",-77.7464901,42.9128422,"{-77.772816,42.897242,-77.725596,42.932701}"
2021,3603408,place,"Babylon, NY",-73.3260004,40.6936792,"{-73.342828,40.673199,-73.313045,40.712168}"
2021,3604033,place,"Bainbridge, NY",-75.4797559,42.3018069,"{-75.496585,42.286491,-75.46227,42.309169}"
2021,3604055,place,"Baiting Hollow, NY",-72.7442523,40.9627932,"{-72.781403,40.9282,-72.701963,40.98578}"
2021,3604143,place,"Baldwin, NY",-73.6077093,40.6501274,"{-73.623694,40.619403,-73.585672,40.687451}"
2021,3604198,place,"Baldwinsville, NY",-76.3384644,43.159706,"{-76.354012,43.13425,-76.306903,43.181575}"
2021,3604253,place,"Ballston Spa, NY",-73.8544584,43.0056402,"{-73.867923,42.994217,-73.838722,43.025805}"
2021,3604286,place,"Balmville, NY",-74.0246266,41.5279046,"{-74.041337,41.517494,-74.005193,41.540248}"
2021,3604388,place,"Bard College, NY",-73.9093674,42.0228164,"{-73.920125,42.011789,-73.899745,42.032673}"
2021,3604396,place,"Bardonia, NY",-73.9792966,41.1139517,"{-74.007733,41.10078,-73.964282,41.127577}"
2021,3604440,place,"Barker, NY",-78.5535349,43.3283276,"{-78.561171,43.322689,-78.547132,43.337384}"
2021,3604528,place,"Barneveld, NY",-75.1876862,43.2744967,"{-75.19741,43.264969,-75.182974,43.28539}"
2021,3604550,place,"Barnum Island, NY",-73.643134,40.6049158,"{-73.65675,40.595364,-73.631873,40.617716}"
2021,3604605,place,"Barrytown, NY",-73.9259731,42.0001257,"{-73.932543,41.998077,-73.917838,42.004324}"
2021,3604616,place,"Barryville, NY",-74.9168011,41.4812617,"{-74.932312,41.472981,-74.899631,41.48942}"
2021,3604715,place,"Batavia, NY",-78.1808064,42.9985582,"{-78.212848,42.980779,-78.149896,43.017361}"
2021,3604759,place,"Bath, NY",-77.3168595,42.3360928,"{-77.343456,42.3191,-77.294691,42.353115}"
2021,3604803,place,"Baxter Estates, NY",-73.6947594,40.833771,"{-73.700694,40.830387,-73.689174,40.837167}"
2021,3604891,place,"Bay Park, NY",-73.6685205,40.631817,"{-73.677403,40.622164,-73.657269,40.637822}"
2021,3604913,place,"Bayport, NY",-73.0563882,40.7459836,"{-73.075348,40.722516,-73.037876,40.774112}"
2021,3604935,place,"Bay Shore, NY",-73.2501414,40.7293769,"{-73.286695,40.702242,-73.223466,40.752831}"
2021,3605034,place,"Bayville, NY",-73.561166,40.9072567,"{-73.583234,40.899091,-73.528035,40.915782}"
2021,3605039,place,"Baywood, NY",-73.2899258,40.7533535,"{-73.306479,40.737623,-73.278868,40.772659}"
2021,3605100,place,"Beacon, NY",-73.9647353,41.5032396,"{-73.989318,41.479923,-73.935177,41.524947}"
2021,3605188,place,"Beaver Dam Lake, NY",-74.1259286,41.4389597,"{-74.140519,41.427498,-74.101279,41.456324}"
2021,3605309,place,"Bedford, NY",-73.6573766,41.1868631,"{-73.668497,41.174778,-73.624148,41.213744}"
2021,3605342,place,"Bedford Hills, NY",-73.688149,41.2405675,"{-73.717274,41.224365,-73.678441,41.245968}"
2021,3605562,place,"Belfast, NY",-78.1184654,42.341322,"{-78.130737,42.327359,-78.102822,42.355176}"
2021,3605639,place,"Bellerose, NY",-73.7166744,40.724275,"{-73.721401,40.72135,-73.71228,40.726978}"
2021,3605661,place,"Bellerose Terrace, NY",-73.7251593,40.7221466,"{-73.730326,40.719167,-73.720322,40.725341}"
2021,3605672,place,"Belle Terre, NY",-73.0672743,40.9606977,"{-73.079614,40.949821,-73.058838,40.970922}"
2021,3605683,place,"Belleville, NY",-76.1151611,43.7929539,"{-76.121769,43.777756,-76.107022,43.798699}"
2021,3605738,place,"Bellmore, NY",-73.5265973,40.6602385,"{-73.545111,40.628482,-73.51337,40.679713}"
2021,3605771,place,"Bellport, NY",-72.9413254,40.7509502,"{-72.956048,40.712076,-72.925141,40.766022}"
2021,3605815,place,"Belmont, NY",-78.0307937,42.2201045,"{-78.045887,42.212985,-78.019534,42.232289}"
2021,3605848,place,"Bemus Point, NY",-79.3894759,42.1632486,"{-79.396891,42.154611,-79.381984,42.172917}"
2021,3606046,place,"Bergen, NY",-77.9424576,43.082601,"{-77.950808,43.073249,-77.928513,43.090686}"
2021,3606387,place,"Bethpage, NY",-73.4855359,40.7495174,"{-73.50601,40.731039,-73.460326,40.76984}"
2021,3606464,place,"Big Flats, NY",-76.908739,42.163617,"{-76.966109,42.124141,-76.860269,42.200374}"
2021,3606574,place,"Billington Heights, NY",-78.6265517,42.785031,"{-78.653699,42.77385,-78.593638,42.798809}"
2021,3606607,place,"Binghamton, NY",-75.9093694,42.1013306,"{-75.95015,42.071862,-75.857023,42.131775}"
2021,3606644,place,"Binghamton University, NY",-75.9684559,42.0891413,"{-75.982171,42.081492,-75.957497,42.095702}"
2021,3606794,place,"Black River, NY",-75.7964631,44.0095252,"{-75.822402,43.992265,-75.780888,44.023116}"
2021,3606849,place,"Blasdell, NY",-78.8324004,42.796519,"{-78.841975,42.784161,-78.820863,42.805059}"
2021,3606860,place,"Blauvelt, NY",-73.954937,41.0682358,"{-73.986472,41.050543,-73.927304,41.088766}"
2021,3606904,place,"Bliss, NY",-78.2537447,42.5801376,"{-78.286245,42.554544,-78.219441,42.608855}"
2021,3606937,place,"Blodgett Mills, NY",-76.1328725,42.5665158,"{-76.148665,42.554404,-76.112619,42.585616}"
2021,3606945,place,"Bloomfield, NY",-77.4241336,42.8991199,"{-77.440768,42.890113,-77.407719,42.909015}"
2021,3606959,place,"Bloomingburg, NY",-74.4437581,41.5519473,"{-74.453725,41.543023,-74.428662,41.560371}"
2021,3607025,place,"Bloomville, NY",-74.8227773,42.334396,"{-74.834149,42.325034,-74.796912,42.34357}"
2021,3607069,place,"Blue Point, NY",-73.0350153,40.7516425,"{-73.042401,40.729412,-73.021694,40.776452}"
2021,3607157,place,"Bohemia, NY",-73.1350895,40.7770107,"{-73.169686,40.747902,-73.082741,40.792557}"
2021,3607190,place,"Bolivar, NY",-78.1662121,42.0684215,"{-78.174344,42.059618,-78.155956,42.080509}"
2021,3607245,place,"Bolton Landing, NY",-73.6525225,43.5639925,"{-73.677494,43.545261,-73.630466,43.58811}"
2021,3607355,place,"Boonville, NY",-75.3296356,43.4808621,"{-75.346896,43.472894,-75.309538,43.491111}"
2021,3607960,place,"Brasher Falls, NY",-74.7889481,44.8139785,"{-74.803533,44.797655,-74.756944,44.820869}"
2021,3608004,place,"Breesport, NY",-76.7359075,42.184035,"{-76.748338,42.166279,-76.726122,42.195058}"
2021,3608026,place,"Brentwood, NY",-73.252235,40.7839183,"{-73.295162,40.754762,-73.209234,40.808315}"
2021,3608059,place,"Brewerton, NY",-76.14482,43.2324317,"{-76.157647,43.216234,-76.117215,43.25706}"
2021,3608070,place,"Brewster, NY",-73.6162687,41.396162,"{-73.624745,41.391301,-73.601948,41.404003}"
2021,3608081,place,"Brewster Heights, NY",-73.6285683,41.4072765,"{-73.635705,41.4002,-73.620558,41.415701}"
2021,3608092,place,"Brewster Hill, NY",-73.6068641,41.4213039,"{-73.614944,41.411115,-73.597139,41.434049}"
2021,3608103,place,"Briarcliff Manor, NY",-73.8475045,41.1403331,"{-73.88758,41.120663,-73.809582,41.164873}"
2021,3608136,place,"Bridgehampton, NY",-72.3057087,40.9411311,"{-72.351853,40.88452,-72.261232,40.978578}"
2021,3608147,place,"Bridgeport, NY",-75.9639133,43.1592364,"{-75.994709,43.14374,-75.954788,43.168184}"
2021,3608158,place,"Bridgeville, NY",-74.6276076,41.631016,"{-74.649942,41.619705,-74.60167,41.645017}"
2021,3608169,place,"Bridgewater, NY",-75.2519931,42.8787319,"{-75.263956,42.868695,-75.239722,42.888057}"
2021,3608257,place,"Brighton, NY",-77.5809761,43.1184982,"{-77.680523,43.092038,-77.516541,43.167615}"
2021,3608323,place,"Brightwaters, NY",-73.2615138,40.7164346,"{-73.275462,40.702323,-73.248764,40.732428}"
2021,3608334,place,"Brinckerhoff, NY",-73.8628802,41.5534719,"{-73.88484,41.538824,-73.842628,41.560405}"
2021,3608422,place,"Broadalbin, NY",-74.1954215,43.0555326,"{-74.20931,43.036183,-74.183507,43.068144}"
2021,3608466,place,"Brockport, NY",-77.9408242,43.2132974,"{-77.967952,43.205461,-77.912135,43.223622}"
2021,3608488,place,"Brocton, NY",-79.4428152,42.389719,"{-79.456118,42.379338,-79.428315,42.40487}"
2021,3608532,place,"Bronxville, NY",-73.8264399,40.9394931,"{-73.83866,40.931053,-73.814064,40.948492}"
2021,3609000,place,"Brookhaven, NY",-72.9078329,40.7766706,"{-72.938078,40.757373,-72.881948,40.80231}"
2021,3610077,place,"Brooktondale, NY",-76.3969565,42.3819656,"{-76.414007,42.375909,-76.387472,42.390099}"
2021,3610132,place,"Brookville, NY",-73.570122,40.8079116,"{-73.617765,40.796596,-73.537067,40.828141}"
2021,3610231,place,"Brownville, NY",-75.9830702,44.0053068,"{-75.992357,43.999678,-75.973374,44.011598}"
2021,3610286,place,"Brushton, NY",-74.5119078,44.8306806,"{-74.524125,44.827393,-74.50169,44.833985}"
2021,3610341,place,"Buchanan, NY",-73.944966,41.2631679,"{-73.964184,41.249891,-73.930163,41.276393}"
2021,3611000,place,"Buffalo, NY",-78.8596862,42.8924919,"{-78.956877,42.826023,-78.795157,42.966455}"
2021,3611132,place,"Burdett, NY",-76.843963,42.4168725,"{-76.855749,42.407596,-76.826102,42.425064}"
2021,3611154,place,"Burke, NY",-74.1699785,44.903146,"{-74.174169,44.896765,-74.164996,44.909884}"
2021,3611220,place,"Burlington Flats, NY",-75.1843221,42.7403061,"{-75.197818,42.714588,-75.16441,42.764493}"
2021,3611440,place,"Busti, NY",-79.2789021,42.0423245,"{-79.294784,42.027739,-79.261863,42.056759}"
2021,3611550,place,"Byersville, NY",-77.7915234,42.5838824,"{-77.801242,42.578523,-77.781296,42.589106}"
2021,3611616,place,"Cadyville, NY",-73.6534397,44.6984954,"{-73.667585,44.687428,-73.616546,44.704703}"
2021,3611638,place,"Cairo, NY",-74.0118297,42.3051752,"{-74.037377,42.282644,-73.979548,42.325621}"
2021,3611671,place,"Calcium, NY",-75.8493884,44.0409331,"{-75.867397,44.012502,-75.819671,44.067496}"
2021,3611704,place,"Caledonia, NY",-77.8570795,42.9754671,"{-77.876167,42.964607,-77.840019,42.987963}"
2021,3611748,place,"Callicoon, NY",-75.0579492,41.7659274,"{-75.073318,41.756153,-75.04361,41.773918}"
2021,3611781,place,"Calverton, NY",-72.7733697,40.9199403,"{-72.842526,40.864879,-72.687538,40.957736}"
2021,3611825,place,"Cambridge, NY",-73.3812963,43.0279751,"{-73.399203,43.017759,-73.364091,43.038939}"
2021,3611847,place,"Camden, NY",-75.7477298,43.3364774,"{-75.764502,43.324724,-75.724333,43.351291}"
2021,3611902,place,"Camillus, NY",-76.3099282,43.0386629,"{-76.318578,43.032386,-76.299935,43.043621}"
2021,3611935,place,"Campbell, NY",-77.1936939,42.235043,"{-77.212199,42.222261,-77.172467,42.246401}"
2021,3612111,place,"Canajoharie, NY",-74.5678692,42.8990805,"{-74.587304,42.879054,-74.555321,42.909662}"
2021,3612144,place,"Canandaigua, NY",-77.2803208,42.8889987,"{-77.309246,42.868481,-77.249932,42.91188}"
2021,3612177,place,"Canaseraga, NY",-77.7772703,42.4617618,"{-77.787149,42.454025,-77.767288,42.469537}"
2021,3612188,place,"Canastota, NY",-75.7554947,43.0841487,"{-75.776324,43.067301,-75.734415,43.100776}"
2021,3612210,place,"Candor, NY",-76.3366715,42.228395,"{-76.344198,42.221275,-76.329505,42.235234}"
2021,3612254,place,"Canisteo, NY",-77.6056583,42.2703537,"{-77.618065,42.259119,-77.590035,42.281698}"
2021,3612331,place,"Canton, NY",-75.1665845,44.599995,"{-75.19394,44.579153,-75.13027,44.625252}"
2021,3612353,place,"Cape Vincent, NY",-76.3307343,44.1231968,"{-76.346284,44.117863,-76.314782,44.13357}"
2021,3612402,place,"Captree, NY",-73.2570513,40.6460744,"{-73.279761,40.626653,-73.239576,40.660356}"
2021,3612419,place,"Carle Place, NY",-73.6123674,40.7498951,"{-73.624059,40.742078,-73.600084,40.758266}"
2021,3612518,place,"Carmel, NY",-73.684986,41.4029948,"{-73.730812,41.386275,-73.653187,41.439702}"
2021,3612584,place,"Caroga Lake, NY",-74.4814231,43.1340033,"{-74.51236,43.121705,-74.456925,43.147379}"
2021,3612683,place,"Carthage, NY",-75.6030119,43.9828761,"{-75.628296,43.966311,-75.576204,44.009431}"
2021,3612749,place,"Cassadaga, NY",-79.317023,42.3415641,"{-79.330867,42.331646,-79.302747,42.349359}"
2021,3612771,place,"Castile, NY",-78.0525886,42.6311557,"{-78.068421,42.621493,-78.039969,42.639026}"
2021,3612870,place,"Castleton-on-Hudson, NY",-73.7479239,42.5365677,"{-73.759038,42.525767,-73.730767,42.543454}"
2021,3612881,place,"Castorland, NY",-75.5164385,43.8861049,"{-75.525744,43.879341,-75.506181,43.896071}"
2021,3612958,place,"Cato, NY",-76.567506,43.1655676,"{-76.583291,43.160322,-76.562345,43.175661}"
2021,3613002,place,"Catskill, NY",-73.8586739,42.2149014,"{-73.889574,42.195633,-73.849203,42.227777}"
2021,3613024,place,"Cattaraugus, NY",-78.8675189,42.3297635,"{-78.87866,42.318064,-78.854404,42.338663}"
2021,3613068,place,"Cayuga, NY",-76.727987,42.9195478,"{-76.73918,42.907136,-76.711492,42.927718}"
2021,3613079,place,"Cayuga Heights, NY",-76.4884173,42.4676754,"{-76.504944,42.456149,-76.475049,42.478127}"
2021,3613145,place,"Cazenovia, NY",-75.85132,42.9279158,"{-75.871551,42.91647,-75.834934,42.94071}"
2021,3613233,place,"Cedarhurst, NY",-73.7278305,40.625202,"{-73.737345,40.617166,-73.717079,40.633865}"
2021,3613288,place,"Celoron, NY",-79.2776909,42.1052106,"{-79.28806,42.09973,-79.266174,42.111664}"
2021,3613299,place,"Cementon, NY",-73.919324,42.1356663,"{-73.926233,42.129159,-73.912245,42.142042}"
2021,3613376,place,"Centereach, NY",-73.0820806,40.8680581,"{-73.109474,40.831519,-73.057734,40.906212}"
2021,3613420,place,"Center Moriches, NY",-72.7965239,40.7993128,"{-72.818963,40.776674,-72.77196,40.824713}"
2021,3613442,place,"Centerport, NY",-73.3714271,40.9024249,"{-73.392264,40.875151,-73.350713,40.920697}"
2021,3613530,place,"Central Bridge, NY",-74.3495314,42.7126906,"{-74.365043,42.690201,-74.322292,42.726989}"
2021,3613552,place,"Central Islip, NY",-73.1944751,40.783589,"{-73.23081,40.755678,-73.154709,40.805761}"
2021,3613585,place,"Central Square, NY",-76.1418794,43.285986,"{-76.159698,43.272125,-76.124971,43.304014}"
2021,3613618,place,"Centre Island, NY",-73.5219193,40.898546,"{-73.534164,40.885354,-73.507673,40.918312}"
2021,3613662,place,"Chadwicks, NY",-75.2709763,43.0291388,"{-75.285582,43.019196,-75.252561,43.043149}"
2021,3613739,place,"Champlain, NY",-73.4324289,44.9882806,"{-73.459903,44.97832,-73.419539,44.99571}"
2021,3613805,place,"Chappaqua, NY",-73.7682679,41.155922,"{-73.77805,41.14414,-73.755873,41.170684}"
2021,3613981,place,"Chateaugay, NY",-74.0803981,44.9265894,"{-74.095548,44.918477,-74.068766,44.934086}"
2021,3614003,place,"Chatham, NY",-73.5979417,42.3618299,"{-73.608585,42.348461,-73.585488,42.375469}"
2021,3614036,place,"Chaumont, NY",-76.1327478,44.0683501,"{-76.148721,44.056263,-76.116918,44.077048}"
2021,3614058,place,"Chautauqua, NY",-79.4690149,42.2100774,"{-79.480298,42.202332,-79.458904,42.217094}"
2021,3614102,place,"Chazy, NY",-73.4292003,44.8908512,"{-73.452966,44.879147,-73.412726,44.908166}"
2021,3615000,place,"Cheektowaga, NY",-78.7507627,42.9090045,"{-78.799904,42.863525,-78.696912,42.951072}"
2021,3615060,place,"Chelsea Cove, NY",-73.7470116,41.6132446,"{-73.752441,41.609534,-73.740625,41.61712}"
2021,3615121,place,"Chenango Bridge, NY",-75.8577186,42.1714275,"{-75.88543,42.160476,-75.829579,42.182851}"
2021,3615187,place,"Cherry Creek, NY",-79.1008582,42.2958455,"{-79.111769,42.28693,-79.089946,42.304785}"
2021,3615242,place,"Cherry Valley, NY",-74.7521705,42.7981799,"{-74.760953,42.792251,-74.740611,42.804612}"
2021,3615297,place,"Chester, NY",-74.276921,41.3569418,"{-74.298853,41.341991,-74.249411,41.371274}"
2021,3615363,place,"Chestertown, NY",-73.7835218,43.6431116,"{-73.819572,43.62745,-73.76983,43.662644}"
2021,3615400,place,"Chestnut Ridge, NY",-74.0480705,41.0849075,"{-74.081706,41.063458,-74.032591,41.102075}"
2021,3615561,place,"Chittenango, NY",-75.8747688,43.0461412,"{-75.903992,43.02813,-75.853822,43.061043}"
2021,3615638,place,"Churchville, NY",-77.8815861,43.102261,"{-77.894315,43.090458,-77.863744,43.117162}"
2021,3615814,place,"Clarence, NY",-78.5953251,42.9757305,"{-78.612644,42.959957,-78.577059,42.988281}"
2021,3615836,place,"Clarence Center, NY",-78.6308151,43.0084249,"{-78.652351,42.994985,-78.616327,43.02109}"
2021,3615902,place,"Clark Mills, NY",-75.376112,43.0845791,"{-75.393334,43.077741,-75.361964,43.101593}"
2021,3615946,place,"Clarkson, NY",-77.9162012,43.2398177,"{-77.967009,43.219341,-77.876702,43.262784}"
2021,3616050,place,"Claverack-Red Mills, NY",-73.7222747,42.2294809,"{-73.750798,42.213374,-73.698902,42.24112}"
2021,3616089,place,"Clayton, NY",-76.0827342,44.2374867,"{-76.109572,44.223171,-76.057087,44.248966}"
2021,3616111,place,"Clayville, NY",-75.2506805,42.9779625,"{-75.255883,42.962581,-75.241556,42.983}"
2021,3616188,place,"Cleveland, NY",-75.8842019,43.2400016,"{-75.896825,43.23019,-75.872979,43.248647}"
2021,3616298,place,"Clifton Gardens, NY",-73.7826005,42.8471175,"{-73.794323,42.838978,-73.773062,42.855681}"
2021,3616322,place,"Clifton Knolls-Mill Creek, NY",-73.8063557,42.8506584,"{-73.821656,42.836272,-73.79402,42.858558}"
2021,3616375,place,"Clifton Springs, NY",-77.1347885,42.9608317,"{-77.149459,42.953106,-77.119996,42.970353}"
2021,3616419,place,"Clinton, NY",-75.3784617,43.0488663,"{-75.391085,43.0431,-75.366341,43.056521}"
2021,3616452,place,"Clintondale, NY",-74.0426535,41.6902688,"{-74.074318,41.667702,-73.999586,41.716505}"
2021,3616573,place,"Clyde, NY",-76.8704301,43.0841623,"{-76.886235,43.072607,-76.85537,43.094925}"
2021,3616628,place,"Cobleskill, NY",-74.4852336,42.6790021,"{-74.516783,42.659609,-74.453181,42.694883}"
2021,3616727,place,"Cohocton, NY",-77.5000062,42.4999299,"{-77.512871,42.4871,-77.488034,42.509926}"
2021,3616749,place,"Cohoes, NY",-73.7077593,42.772867,"{-73.731717,42.751143,-73.676762,42.794077}"
2021,3616815,place,"Cold Brook, NY",-75.0388692,43.2398746,"{-75.048521,43.231963,-75.032076,43.24907}"
2021,3616936,place,"Cold Spring, NY",-73.9547452,41.419238,"{-73.964047,41.412567,-73.944864,41.425467}"
2021,3616958,place,"Cold Spring Harbor, NY",-73.4564061,40.8643223,"{-73.473466,40.835835,-73.431168,40.88452}"
2021,3617332,place,"Colonie, NY",-73.8317359,42.7208726,"{-73.859982,42.702078,-73.808616,42.736659}"
2021,3617398,place,"Colton, NY",-74.9466619,44.5650559,"{-74.955875,44.545665,-74.927442,44.57256}"
2021,3617530,place,"Commack, NY",-73.2833356,40.8434495,"{-73.321109,40.803983,-73.238831,40.875405}"
2021,3617607,place,"Conesus, NY",-77.6696764,42.7263326,"{-77.683052,42.715086,-77.657804,42.736822}"
2021,3617622,place,"Conesus Lake, NY",-77.7011203,42.8021754,"{-77.731715,42.713525,-77.687345,42.83455}"
2021,3617739,place,"Congers, NY",-73.9463705,41.1491221,"{-73.96525,41.117749,-73.927613,41.173769}"
2021,3617882,place,"Constableville, NY",-75.428055,43.5648781,"{-75.442532,43.554153,-75.413524,43.575626}"
2021,3617893,place,"Constantia, NY",-76.0090243,43.2585596,"{-76.051545,43.242816,-75.969581,43.268121}"
2021,3618036,place,"Coopers Plains, NY",-77.1375226,42.1793453,"{-77.157705,42.172362,-77.119332,42.188117}"
2021,3618047,place,"Cooperstown, NY",-74.9306589,42.698875,"{-74.947044,42.689884,-74.913913,42.710662}"
2021,3618091,place,"Copake, NY",-73.5547145,42.1048418,"{-73.572092,42.092987,-73.538975,42.113177}"
2021,3618113,place,"Copake Falls, NY",-73.5247233,42.1202232,"{-73.531731,42.114623,-73.519401,42.126013}"
2021,3618124,place,"Copake Lake, NY",-73.5975793,42.1472422,"{-73.624365,42.097873,-73.555438,42.175785}"
2021,3618135,place,"Copenhagen, NY",-75.6726175,43.8934361,"{-75.686985,43.881929,-75.659195,43.905256}"
2021,3618146,place,"Copiague, NY",-73.3927609,40.6703578,"{-73.417716,40.6516,-73.364465,40.694113}"
2021,3618157,place,"Coram, NY",-73.0058823,40.8812363,"{-73.039113,40.837688,-72.972418,40.921093}"
2021,3618201,place,"Corfu, NY",-78.4026102,42.9611626,"{-78.417077,42.954331,-78.390028,42.967077}"
2021,3618212,place,"Corinth, NY",-73.8303482,43.2456617,"{-73.85053,43.237529,-73.809245,43.254955}"
2021,3618256,place,"Corning, NY",-77.0564013,42.1481948,"{-77.075799,42.131597,-77.029932,42.164366}"
2021,3618333,place,"Cornwall-on-Hudson, NY",-74.0151452,41.4335211,"{-74.027265,41.417958,-73.996258,41.452949}"
2021,3618388,place,"Cortland, NY",-76.1791268,42.6008656,"{-76.20049,42.585547,-76.154685,42.614509}"
2021,3618443,place,"Cortland West, NY",-76.2258528,42.5941865,"{-76.260987,42.57389,-76.195381,42.614954}"
2021,3618542,place,"Country Knolls, NY",-73.8073199,42.9087499,"{-73.836167,42.891015,-73.779631,42.924575}"
2021,3618597,place,"Cove Neck, NY",-73.4973041,40.8857809,"{-73.512167,40.869514,-73.487166,40.896298}"
2021,3618718,place,"Coxsackie, NY",-73.8079891,42.3576277,"{-73.832025,42.342881,-73.787764,42.369446}"
2021,3618762,place,"Cragsmoor, NY",-74.3911687,41.6654836,"{-74.421428,41.644876,-74.361165,41.694131}"
2021,3618817,place,"Cranberry Lake, NY",-74.86828,44.180885,"{-74.901657,44.149756,-74.789954,44.253403}"
2021,3618993,place,"Crest View Heights, NY",-76.1234092,42.075728,"{-76.136,42.064434,-76.108947,42.08459}"
2021,3619070,place,"Croghan, NY",-75.3912288,43.8945626,"{-75.39821,43.889033,-75.382966,43.90142}"
2021,3619092,place,"Crompond, NY",-73.8399627,41.2952646,"{-73.854847,41.277394,-73.818509,41.307831}"
2021,3619213,place,"Croton-on-Hudson, NY",-73.901152,41.2096524,"{-73.939983,41.164395,-73.862695,41.22848}"
2021,3619229,place,"Crown Heights, NY",-73.9286626,41.6416541,"{-73.938923,41.631773,-73.918938,41.651357}"
2021,3619290,place,"Crugers, NY",-73.92581,41.2313375,"{-73.944683,41.214494,-73.911468,41.240659}"
2021,3619308,place,"Crystal Beach, NY",-77.2582929,42.8097693,"{-77.26682,42.79946,-77.242612,42.819847}"
2021,3619356,place,"Cuba, NY",-78.2752112,42.2182919,"{-78.2884,42.210538,-78.264771,42.228074}"
2021,3619408,place,"Cumberland Head, NY",-73.3980064,44.717703,"{-73.420569,44.690651,-73.378383,44.744203}"
2021,3619411,place,"Cumminsville, NY",-77.7189356,42.5705392,"{-77.724284,42.566767,-77.713788,42.574947}"
2021,3619466,place,"Cutchogue, NY",-72.4869577,41.0212229,"{-72.528742,40.985253,-72.433688,41.051933}"
2021,3619510,place,"Cuylerville, NY",-77.8737578,42.7776922,"{-77.881838,42.771547,-77.865817,42.785665}"
2021,3619587,place,"Dalton, NY",-77.9519379,42.542227,"{-77.961317,42.530424,-77.942082,42.552271}"
2021,3619609,place,"Danby, NY",-76.4668176,42.3565875,"{-76.506672,42.341192,-76.451813,42.368788}"
2021,3619642,place,"Dannemora, NY",-73.7185351,44.7197211,"{-73.730307,44.709744,-73.706333,44.729887}"
2021,3619664,place,"Dansville, NY",-77.696927,42.5624823,"{-77.719362,42.5441,-77.666976,42.586992}"
2021,3619774,place,"Davenport Center, NY",-74.9112168,42.4450853,"{-74.937063,42.428884,-74.882457,42.469061}"
2021,3619972,place,"Deer Park, NY",-73.3217362,40.7614408,"{-73.353756,40.740618,-73.294962,40.784297}"
2021,3619994,place,"Deferiet, NY",-75.682427,44.0364908,"{-75.688492,44.024866,-75.669125,44.042774}"
2021,3620049,place,"DeKalb Junction, NY",-75.2976878,44.5120523,"{-75.310797,44.486849,-75.25267,44.533555}"
2021,3620082,place,"Delanson, NY",-74.1824433,42.7480992,"{-74.192508,42.740168,-74.177055,42.756254}"
2021,3620115,place,"Delevan, NY",-78.4796033,42.4912882,"{-78.489949,42.481488,-78.471698,42.500647}"
2021,3620126,place,"Delhi, NY",-74.9154797,42.2774174,"{-74.938261,42.256376,-74.894522,42.297455}"
2021,3620302,place,"Depauville, NY",-76.045152,44.1424484,"{-76.094379,44.115206,-75.997216,44.169696}"
2021,3620313,place,"Depew, NY",-78.7043632,42.9117637,"{-78.7399,42.892394,-78.676845,42.930044}"
2021,3620346,place,"Deposit, NY",-75.4229194,42.0641755,"{-75.436047,42.055699,-75.405819,42.070383}"
2021,3620379,place,"Dering Harbor, NY",-72.341328,41.0921774,"{-72.348311,41.087972,-72.335978,41.098821}"
2021,3620390,place,"DeRuyter, NY",-75.8866889,42.7586689,"{-75.893184,42.754054,-75.880187,42.763325}"
2021,3620467,place,"De Witt, NY",-76.0864256,43.0280899,"{-76.111572,43.003851,-76.051375,43.05655}"
2021,3620500,place,"Dexter, NY",-76.0429821,44.0111789,"{-76.055965,44.001888,-76.031877,44.021669}"
2021,3620687,place,"Dix Hills, NY",-73.3374587,40.803322,"{-73.380746,40.767147,-73.293636,40.838557}"
2021,3620698,place,"Dobbs Ferry, NY",-73.8686359,41.0099937,"{-73.893579,40.998157,-73.845258,41.02449}"
2021,3620731,place,"Dolgeville, NY",-74.7799783,43.1066959,"{-74.78667,43.09,-74.76004,43.117279}"
2021,3620841,place,"Dover Plains, NY",-73.5730143,41.7392719,"{-73.584823,41.729565,-73.560465,41.747343}"
2021,3620852,place,"Downsville, NY",-74.9977086,42.0845976,"{-75.031991,42.061412,-74.968535,42.109323}"
2021,3620896,place,"Dresden, NY",-76.9570462,42.6839278,"{-76.963709,42.679264,-76.949295,42.687957}"
2021,3620951,place,"Dryden, NY",-76.3013868,42.4908303,"{-76.314059,42.479558,-76.285709,42.504955}"
2021,3620989,place,"Duane Lake, NY",-74.1073269,42.7522393,"{-74.144321,42.742997,-74.070674,42.760556}"
2021,3620995,place,"Duanesburg, NY",-74.133129,42.7634232,"{-74.17742,42.75281,-74.101364,42.776347}"
2021,3621050,place,"Dundee, NY",-76.977422,42.5236126,"{-76.99214,42.515853,-76.959799,42.53162}"
2021,3621105,place,"Dunkirk, NY",-79.3328983,42.4805509,"{-79.363649,42.456911,-79.30918,42.504401}"
2021,3621226,place,"Durhamville, NY",-75.6650003,43.1225622,"{-75.687101,43.113639,-75.645017,43.133733}"
2021,3621380,place,"Eagle Bay, NY",-74.8173674,43.7686436,"{-74.822851,43.762654,-74.813155,43.774821}"
2021,3621523,place,"Earlville, NY",-75.5435954,42.7400847,"{-75.552717,42.731371,-75.530675,42.750834}"
2021,3621578,place,"East Atlantic Beach, NY",-73.7122036,40.5855822,"{-73.718104,40.579144,-73.701075,40.591504}"
2021,3621589,place,"East Aurora, NY",-78.6170422,42.766837,"{-78.639862,42.755671,-78.592948,42.781231}"
2021,3621600,place,"East Avon, NY",-77.7073058,42.9127851,"{-77.717674,42.896111,-77.696769,42.924479}"
2021,3621809,place,"Eastchester, NY",-73.8074895,40.9583475,"{-73.821791,40.926836,-73.792388,40.987822}"
2021,3621919,place,"East Durham, NY",-74.0925256,42.3656499,"{-74.122427,42.340625,-74.068482,42.38282}"
2021,3621985,place,"East Farmingdale, NY",-73.4113676,40.7366569,"{-73.438617,40.706394,-73.374233,40.761926}"
2021,3622029,place,"East Frankfort, NY",-75.0647954,43.0169732,"{-75.076314,43.006387,-75.053952,43.024567}"
2021,3622084,place,"East Glenville, NY",-73.9289022,42.8640271,"{-73.955127,42.822954,-73.895938,42.904294}"
2021,3622106,place,"East Greenbush, NY",-73.7049967,42.5951736,"{-73.729917,42.58028,-73.676619,42.614969}"
2021,3622183,place,"East Hampton, NY",-72.1960936,40.9515426,"{-72.240839,40.929955,-72.154895,40.969887}"
2021,3622200,place,"East Hampton North, NY",-72.1891255,40.9727668,"{-72.229853,40.951613,-72.146456,40.996967}"
2021,3622238,place,"East Herkimer, NY",-74.9641984,43.0315183,"{-74.983323,43.023568,-74.938471,43.039386}"
2021,3622260,place,"East Hills, NY",-73.629176,40.7958411,"{-73.644058,40.777991,-73.607921,40.812427}"
2021,3622315,place,"East Islip, NY",-73.1873461,40.7262488,"{-73.204789,40.698403,-73.163579,40.747346}"
2021,3622326,place,"East Ithaca, NY",-76.4586782,42.4244722,"{-76.484477,42.409034,-76.44726,42.441326}"
2021,3622370,place,"East Kingston, NY",-73.9745955,41.9508605,"{-73.986579,41.942115,-73.959629,41.964718}"
2021,3622447,place,"East Marion, NY",-72.3351597,41.1352705,"{-72.363009,41.109059,-72.317436,41.148674}"
2021,3622480,place,"East Massapequa, NY",-73.437058,40.676236,"{-73.454047,40.650246,-73.423275,40.706615}"
2021,3622502,place,"East Meadow, NY",-73.5588611,40.7201151,"{-73.588906,40.694497,-73.52627,40.749524}"
2021,3622546,place,"East Moriches, NY",-72.756601,40.8087718,"{-72.782687,40.782036,-72.728076,40.834372}"
2021,3622557,place,"East Nassau, NY",-73.5049759,42.538976,"{-73.530528,42.49157,-73.492632,42.566322}"
2021,3622612,place,"East Northport, NY",-73.3232436,40.8791313,"{-73.355184,40.862415,-73.28644,40.89989}"
2021,3622623,place,"East Norwich, NY",-73.5288524,40.8495235,"{-73.544417,40.838938,-73.517396,40.862908}"
2021,3622733,place,"East Patchogue, NY",-72.9817724,40.7700309,"{-73.009935,40.742796,-72.949647,40.797301}"
2021,3622810,place,"Eastport, NY",-72.7350519,40.83508,"{-72.750177,40.813877,-72.706679,40.875187}"
2021,3622832,place,"East Quogue, NY",-72.5753545,40.8458508,"{-72.619858,40.808195,-72.539103,40.875901}"
2021,3622843,place,"East Randolph, NY",-78.9571841,42.1680672,"{-78.964953,42.160766,-78.942642,42.179224}"
2021,3622865,place,"East Rochester, NY",-77.4871756,43.1122104,"{-77.502815,43.098792,-77.469818,43.121897}"
2021,3622876,place,"East Rockaway, NY",-73.66713,40.6438042,"{-73.679406,40.633755,-73.655631,40.653368}"
2021,3622964,place,"East Setauket, NY",-73.0937144,40.9209661,"{-73.119961,40.886144,-73.065082,40.952466}"
2021,3622980,place,"East Shoreham, NY",-72.8753524,40.9502324,"{-72.906583,40.912792,-72.847594,40.973824}"
2021,3623052,place,"East Syracuse, NY",-76.0697891,43.0638229,"{-76.09024,43.055666,-76.051551,43.071248}"
2021,3623217,place,"East Williston, NY",-73.633607,40.7608497,"{-73.640759,40.753366,-73.625338,40.767411}"
2021,3623283,place,"East Worcester, NY",-74.6743209,42.6283987,"{-74.691255,42.610817,-74.642047,42.647539}"
2021,3623316,place,"Eatons Neck, NY",-73.4017711,40.9309688,"{-73.427264,40.911458,-73.384962,40.946797}"
2021,3623404,place,"Eden, NY",-78.9013001,42.652344,"{-78.937571,42.629365,-78.871297,42.673504}"
2021,3623602,place,"Edmeston, NY",-75.2522974,42.698855,"{-75.274722,42.672867,-75.22161,42.718338}"
2021,3623635,place,"Edwards, NY",-75.2493738,44.3202638,"{-75.266038,44.314515,-75.237359,44.333568}"
2021,3623701,place,"Eggertsville, NY",-78.8071875,42.9664746,"{-78.82384,42.949251,-78.790778,42.980859}"
2021,3623745,place,"Elba, NY",-78.1889085,43.0768041,"{-78.197458,43.066661,-78.179613,43.086977}"
2021,3623789,place,"Elbridge, NY",-76.4423524,43.0379359,"{-76.460389,43.027501,-76.430258,43.05114}"
2021,3623811,place,"Eldred, NY",-74.8788293,41.5268023,"{-74.889555,41.513479,-74.865029,41.545432}"
2021,3623822,place,"Elizabethtown, NY",-73.5889333,44.2261318,"{-73.616765,44.199552,-73.56617,44.233596}"
2021,3623965,place,"Ellenville, NY",-74.36219,41.7047438,"{-74.412882,41.663459,-74.313653,41.731271}"
2021,3624020,place,"Ellicottville, NY",-78.6722833,42.2748519,"{-78.684793,42.263837,-78.656738,42.284061}"
2021,3624075,place,"Ellisburg, NY",-76.1343878,43.7351015,"{-76.148849,43.724902,-76.119924,43.745297}"
2021,3624141,place,"Elma Center, NY",-78.6342914,42.8281982,"{-78.666125,42.796485,-78.606082,42.854125}"
2021,3624229,place,"Elmira, NY",-76.8096099,42.0933876,"{-76.842274,42.064651,-76.776631,42.120203}"
2021,3624251,place,"Elmira Heights, NY",-76.8255662,42.1266901,"{-76.841075,42.117974,-76.811193,42.134677}"
2021,3624273,place,"Elmont, NY",-73.7061659,40.6991762,"{-73.729176,40.686182,-73.688282,40.72087}"
2021,3624295,place,"Elmsford, NY",-73.8143254,41.0541144,"{-73.829732,41.045636,-73.801602,41.061131}"
2021,3624405,place,"Elwood, NY",-73.3388743,40.8461977,"{-73.37049,40.827083,-73.308963,40.864825}"
2021,3624515,place,"Endicott, NY",-76.0633763,42.0974887,"{-76.105842,42.071647,-76.036324,42.118817}"
2021,3624526,place,"Endwell, NY",-76.0235723,42.1228636,"{-76.039964,42.099037,-75.995084,42.138584}"
2021,3624625,place,"Erin, NY",-76.6717029,42.1840789,"{-76.686844,42.175659,-76.657425,42.19424}"
2021,3624713,place,"Esperance, NY",-74.2573916,42.7646329,"{-74.264186,42.755567,-74.25148,42.773944}"
2021,3624823,place,"Evans Mills, NY",-75.8077606,44.086978,"{-75.820196,44.077803,-75.794556,44.095826}"
2021,3624867,place,"Fabius, NY",-75.984786,42.8346657,"{-75.993324,42.829985,-75.977392,42.839155}"
2021,3624988,place,"Fair Haven, NY",-76.7046782,43.3231752,"{-76.7186,43.308807,-76.689,43.346229}"
2021,3625043,place,"Fairmount, NY",-76.2485048,43.0413826,"{-76.274485,43.029164,-76.220623,43.057195}"
2021,3625076,place,"Fairport, NY",-77.4430687,43.0994653,"{-77.457469,43.086679,-77.425793,43.108555}"
2021,3625109,place,"Fairview, NY",-73.9123947,41.7321116,"{-73.933857,41.716005,-73.892263,41.749143}"
2021,3625120,place,"Fairview, NY",-73.7959524,41.0441902,"{-73.804744,41.037979,-73.785653,41.049881}"
2021,3625164,place,"Falconer, NY",-79.1969322,42.1190693,"{-79.211345,42.109957,-79.17861,42.125948}"
2021,3625230,place,"Fallsburg, NY",-74.6138623,41.7389905,"{-74.638975,41.717371,-74.584924,41.754299}"
2021,3625384,place,"Farmingdale, NY",-73.4467594,40.7328076,"{-73.463016,40.723613,-73.433471,40.74001}"
2021,3625417,place,"Farmingville, NY",-73.0404631,40.838978,"{-73.075975,40.82145,-73.014696,40.859974}"
2021,3625428,place,"Farnham, NY",-79.0808594,42.5950644,"{-79.092283,42.587421,-79.069506,42.602712}"
2021,3625527,place,"Fayetteville, NY",-75.998361,43.0307939,"{-76.018973,43.020645,-75.976861,43.045148}"
2021,3625571,place,"Felts Mills, NY",-75.7701233,44.0124029,"{-75.774875,44.00776,-75.750124,44.02468}"
2021,3625747,place,"Fillmore, NY",-78.1105035,42.4658981,"{-78.122923,42.446071,-78.095873,42.475472}"
2021,3625839,place,"Fire Island, NY",-73.203314,40.6370968,"{-73.319884,40.611076,-72.727031,40.780778}"
2021,3625857,place,"Firthcliffe, NY",-74.0330718,41.4420482,"{-74.054163,41.419344,-74.015922,41.460062}"
2021,3625923,place,"Fishers Island, NY",-71.9927957,41.2676808,"{-72.038076,41.249508,-71.922213,41.292294}"
2021,3625934,place,"Fishers Landing, NY",-76.0082288,44.281138,"{-76.022021,44.265099,-75.996368,44.288078}"
2021,3625967,place,"Fishkill, NY",-73.8931308,41.533908,"{-73.911134,41.524716,-73.878506,41.542511}"
2021,3626121,place,"Flanders, NY",-72.604235,40.8887553,"{-72.649067,40.868076,-72.556155,40.922406}"
2021,3626209,place,"Fleischmanns, NY",-74.5348265,42.1549252,"{-74.549801,42.150395,-74.518352,42.162618}"
2021,3626264,place,"Floral Park, NY",-73.7028241,40.7219521,"{-73.722394,40.712852,-73.687896,40.737555}"
2021,3626319,place,"Florida, NY",-74.3542019,41.3306407,"{-74.373281,41.314862,-74.330944,41.346694}"
2021,3626352,place,"Flower Hill, NY",-73.6755675,40.807495,"{-73.695706,40.797156,-73.652644,40.817303}"
2021,3626418,place,"Fly Creek, NY",-74.9842101,42.7194043,"{-75.004053,42.708832,-74.962635,42.732384}"
2021,3626462,place,"Fonda, NY",-74.3728689,42.9533835,"{-74.383296,42.949254,-74.357708,42.958614}"
2021,3626561,place,"Forest Home, NY",-76.4685171,42.4518954,"{-76.474952,42.448447,-76.45929,42.457616}"
2021,3626649,place,"Forestville, NY",-79.1754905,42.4691029,"{-79.186465,42.461303,-79.165849,42.479248}"
2021,3626704,place,"Fort Ann, NY",-73.4905129,43.4157311,"{-73.498601,43.409374,-73.484468,43.420205}"
2021,3626726,place,"Fort Covington, NY",-74.4998853,44.9758019,"{-74.572098,44.945018,-74.424766,44.999027}"
2021,3626759,place,"Fort Drum, NY",-75.7877626,44.0447085,"{-75.838131,44.017821,-75.692937,44.078366}"
2021,3626770,place,"Fort Edward, NY",-73.5826172,43.2686175,"{-73.600981,43.251405,-73.568183,43.279498}"
2021,3626880,place,"Fort Johnson, NY",-74.236342,42.9580226,"{-74.250591,42.953666,-74.220571,42.966615}"
2021,3626902,place,"Fort Montgomery, NY",-73.9871804,41.3428653,"{-74.002251,41.326204,-73.969102,41.356229}"
2021,3626924,place,"Fort Plain, NY",-74.626804,42.9326583,"{-74.641268,42.919496,-74.612325,42.944257}"
2021,3626946,place,"Fort Salonga, NY",-73.2955874,40.9114129,"{-73.351436,40.881156,-73.231202,40.935497}"
2021,3627133,place,"Fowlerville, NY",-77.8480568,42.8939576,"{-77.868235,42.886813,-77.833048,42.900449}"
2021,3627188,place,"Frankfort, NY",-75.0715825,43.0377535,"{-75.086019,43.026578,-75.058523,43.0491}"
2021,3627221,place,"Franklin, NY",-75.168021,42.3407834,"{-75.17112,42.333494,-75.159437,42.349093}"
2021,3627309,place,"Franklin Square, NY",-73.6774781,40.7001927,"{-73.692399,40.682982,-73.661028,40.71799}"
2021,3627331,place,"Franklinville, NY",-78.4547656,42.3347456,"{-78.464061,42.326266,-78.444806,42.347235}"
2021,3627419,place,"Fredonia, NY",-79.3319004,42.4406582,"{-79.354446,42.423988,-79.307904,42.457016}"
2021,3627452,place,"Freedom Plains, NY",-73.7986203,41.6653658,"{-73.812196,41.657696,-73.787102,41.681437}"
2021,3627485,place,"Freeport, NY",-73.5849926,40.652407,"{-73.6038,40.623373,-73.564632,40.673548}"
2021,3627529,place,"Freeville, NY",-76.3471618,42.50841,"{-76.356464,42.503719,-76.335053,42.519081}"
2021,3627672,place,"Frewsburg, NY",-79.1336873,42.0560553,"{-79.178373,42.047132,-79.11903,42.073316}"
2021,3627694,place,"Friendship, NY",-78.1418111,42.2055523,"{-78.191475,42.188852,-78.111873,42.220012}"
2021,3627815,place,"Fulton, NY",-76.4197385,43.3191638,"{-76.445897,43.299168,-76.390382,43.338708}"
2021,3627859,place,"Fultonville, NY",-74.3697781,42.9462289,"{-74.380858,42.941775,-74.358262,42.95026}"
2021,3627969,place,"Gainesville, NY",-78.1346587,42.6414941,"{-78.14895,42.635251,-78.12423,42.647441}"
2021,3628035,place,"Galeville, NY",-76.1877879,43.0866655,"{-76.206134,43.071867,-76.166974,43.100759}"
2021,3628101,place,"Galway, NY",-74.0318378,43.018516,"{-74.037407,43.014522,-74.026303,43.022542}"
2021,3628138,place,"Gananda, NY",-77.3374847,43.126168,"{-77.373949,43.116251,-77.292627,43.146669}"
2021,3628145,place,"Gang Mills, NY",-77.1276093,42.1603747,"{-77.148934,42.131048,-77.096171,42.1732}"
2021,3628178,place,"Garden City, NY",-73.6453981,40.7257555,"{-73.682935,40.707317,-73.608705,40.743004}"
2021,3628189,place,"Garden City Park, NY",-73.663307,40.7429305,"{-73.673277,40.733995,-73.651299,40.75321}"
2021,3628200,place,"Garden City South, NY",-73.6604747,40.7121528,"{-73.665707,40.705658,-73.651074,40.717574}"
2021,3628244,place,"Gardiner, NY",-74.1478962,41.6795167,"{-74.166329,41.658399,-74.125519,41.703047}"
2021,3628310,place,"Gardnertown, NY",-74.0572227,41.5395739,"{-74.082453,41.509818,-74.034708,41.563073}"
2021,3628376,place,"Garrattsville, NY",-75.169089,42.6524289,"{-75.182943,42.633612,-75.152694,42.664785}"
2021,3628431,place,"Gasport, NY",-78.5846555,43.1893313,"{-78.596685,43.175845,-78.557129,43.208363}"
2021,3628453,place,"Gates, NY",-77.6923588,43.1563793,"{-77.71156,43.14709,-77.671499,43.164855}"
2021,3628618,place,"Geneseo, NY",-77.809548,42.79902,"{-77.831584,42.787398,-77.785466,42.813773}"
2021,3628640,place,"Geneva, NY",-76.9827223,42.8634882,"{-77.011309,42.837811,-76.963263,42.890456}"
2021,3628761,place,"Germantown, NY",-73.8880212,42.1359452,"{-73.910084,42.10942,-73.865547,42.158107}"
2021,3628860,place,"Ghent, NY",-73.6193598,42.3235208,"{-73.631331,42.315228,-73.602309,42.33864}"
2021,3628959,place,"Gilbertsville, NY",-75.3226094,42.46933,"{-75.33514,42.462379,-75.310996,42.477428}"
2021,3628990,place,"Gilgo, NY",-73.3837752,40.6361511,"{-73.425346,40.600725,-73.310144,40.6605}"
2021,3629014,place,"Glasco, NY",-73.9466718,42.0459587,"{-73.971702,42.030268,-73.932763,42.060129}"
2021,3629058,place,"Glen Aubrey, NY",-76.0002919,42.2622842,"{-76.019496,42.251659,-75.985288,42.276033}"
2021,3629113,place,"Glen Cove, NY",-73.6447811,40.8847565,"{-73.694448,40.846082,-73.590693,40.950821}"
2021,3629245,place,"Glen Head, NY",-73.6180177,40.8449175,"{-73.63571,40.829958,-73.590248,40.856978}"
2021,3629322,place,"Glen Park, NY",-75.9583975,44.0030697,"{-75.973644,43.996621,-75.934562,44.00577}"
2021,3629333,place,"Glens Falls, NY",-73.6452865,43.3111604,"{-73.674097,43.289572,-73.619579,43.327097}"
2021,3629338,place,"Glens Falls North, NY",-73.683801,43.3348066,"{-73.729213,43.313218,-73.62727,43.357245}"
2021,3629421,place,"Glenwood Landing, NY",-73.6377361,40.829451,"{-73.651787,40.818075,-73.625097,40.837168}"
2021,3629443,place,"Gloversville, NY",-74.3458154,43.049244,"{-74.376629,43.018273,-74.322022,43.075579}"
2021,3629476,place,"Golden's Bridge, NY",-73.6704159,41.2901717,"{-73.685231,41.271994,-73.647559,41.302727}"
2021,3629509,place,"Gordon Heights, NY",-72.962088,40.8636465,"{-72.978577,40.850601,-72.957252,40.879387}"
2021,3629520,place,"Gorham, NY",-77.1357767,42.8002594,"{-77.165681,42.784242,-77.123085,42.811303}"
2021,3629542,place,"Goshen, NY",-74.3268547,41.4016472,"{-74.354977,41.382313,-74.305868,41.420387}"
2021,3629597,place,"Gouverneur, NY",-75.4660346,44.3365729,"{-75.492153,44.324123,-75.443834,44.348731}"
2021,3629630,place,"Gowanda, NY",-78.9345176,42.4604276,"{-78.943967,42.448407,-78.918164,42.475738}"
2021,3629707,place,"Grahamsville, NY",-74.5522524,41.8527509,"{-74.574006,41.842191,-74.531502,41.864946}"
2021,3629872,place,"Grand View-on-Hudson, NY",-73.9208993,41.0629027,"{-73.922374,41.051421,-73.918836,41.076171}"
2021,3629894,place,"Grandyle Village, NY",-78.9545655,42.9884875,"{-78.9648,42.969175,-78.937071,43.004458}"
2021,3630026,place,"Granville, NY",-73.264459,43.413407,"{-73.275833,43.396785,-73.250422,43.419011}"
2021,3630136,place,"Great Bend, NY",-75.7001662,44.0168287,"{-75.73652,43.996819,-75.672462,44.039394}"
2021,3630169,place,"Great Neck, NY",-73.7330992,40.8023675,"{-73.757513,40.794001,-73.710114,40.812832}"
2021,3630191,place,"Great Neck Estates, NY",-73.7401665,40.7864758,"{-73.749664,40.776014,-73.729385,40.796078}"
2021,3630202,place,"Great Neck Gardens, NY",-73.722465,40.7969526,"{-73.728331,40.793944,-73.715514,40.800235}"
2021,3630213,place,"Great Neck Plaza, NY",-73.726155,40.7869127,"{-73.734674,40.780713,-73.715503,40.791308}"
2021,3630235,place,"Great River, NY",-73.176039,40.713454,"{-73.191975,40.690995,-73.127237,40.748811}"
2021,3630279,place,"Greece, NY",-77.702642,43.2095167,"{-77.732038,43.194237,-77.677371,43.223811}"
2021,3630411,place,"Greene, NY",-75.7676855,42.3300683,"{-75.783513,42.31946,-75.755714,42.339344}"
2021,3630521,place,"Green Island, NY",-73.6924663,42.7479043,"{-73.699464,42.732078,-73.684362,42.760778}"
2021,3630543,place,"Greenlawn, NY",-73.3657541,40.8635153,"{-73.390593,40.835339,-73.337223,40.886228}"
2021,3630576,place,"Greenport, NY",-72.3667628,41.1024279,"{-72.389603,41.09134,-72.350747,41.112549}"
2021,3630581,place,"Greenport West, NY",-72.3845837,41.0901675,"{-72.40284,41.072461,-72.337377,41.140082}"
2021,3630598,place,"Greenvale, NY",-73.6263268,40.8119574,"{-73.633741,40.806957,-73.620373,40.817272}"
2021,3630609,place,"Greenville, NY",-74.0203236,42.4137891,"{-74.040286,42.39108,-73.990726,42.435669}"
2021,3630642,place,"Greenville, NY",-73.8189775,40.998643,"{-73.845611,40.983311,-73.795982,41.018952}"
2021,3630675,place,"Greenwich, NY",-73.4966729,43.0864747,"{-73.507988,43.074771,-73.485318,43.098217}"
2021,3630752,place,"Greenwood Lake, NY",-74.287578,41.2211035,"{-74.313198,41.205407,-74.263464,41.237208}"
2021,3630807,place,"Greigsville, NY",-77.9014285,42.8307186,"{-77.913964,42.825354,-77.884886,42.836381}"
2021,3630961,place,"Groton, NY",-76.3598595,42.5834302,"{-76.378156,42.574552,-76.343248,42.599233}"
2021,3631022,place,"Groveland Station, NY",-77.76667,42.6633789,"{-77.781961,42.652953,-77.753621,42.671713}"
2021,3631137,place,"Guilford, NY",-75.4854167,42.4073374,"{-75.507155,42.396153,-75.46073,42.419988}"
2021,3631258,place,"Hadley, NY",-73.8467486,43.3124941,"{-73.887486,43.289932,-73.824548,43.326641}"
2021,3631291,place,"Hagaman, NY",-74.1597903,42.9707331,"{-74.170605,42.962726,-74.141113,42.983115}"
2021,3631346,place,"Hailesboro, NY",-75.4330241,44.3116032,"{-75.465371,44.2859,-75.405329,44.339588}"
2021,3631357,place,"Haines Falls, NY",-74.1009229,42.1970052,"{-74.113512,42.190479,-74.088134,42.20292}"
2021,3631445,place,"Halesite, NY",-73.4125139,40.8862841,"{-73.426773,40.877932,-73.402685,40.896182}"
2021,3631533,place,"Hall, NY",-77.0679632,42.7965057,"{-77.079054,42.78616,-77.056822,42.805697}"
2021,3631643,place,"Hamburg, NY",-78.8348044,42.7233565,"{-78.860521,42.709159,-78.812825,42.739765}"
2021,3631709,place,"Hamilton, NY",-75.553015,42.8284567,"{-75.574257,42.804869,-75.529668,42.860345}"
2021,3631746,place,"Hamilton College, NY",-75.4077156,43.0526657,"{-75.41635,43.044825,-75.400597,43.060279}"
2021,3631786,place,"Hamlin, NY",-77.9216822,43.3022945,"{-77.959503,43.284469,-77.890556,43.320986}"
2021,3631830,place,"Hammond, NY",-75.6934986,44.4463853,"{-75.702801,44.438363,-75.684213,44.45439}"
2021,3631852,place,"Hammondsport, NY",-77.2228581,42.4087396,"{-77.233773,42.402448,-77.215632,42.41449}"
2021,3631896,place,"Hampton Bays, NY",-72.5181036,40.8646521,"{-72.568579,40.813709,-72.472892,40.917844}"
2021,3631918,place,"Hampton Manor, NY",-73.730119,42.6206247,"{-73.744969,42.600462,-73.707131,42.634978}"
2021,3631940,place,"Hancock, NY",-75.2820896,41.9530284,"{-75.303921,41.939006,-75.267015,41.964019}"
2021,3631973,place,"Hankins, NY",-75.084195,41.8231584,"{-75.094612,41.811619,-75.06375,41.834636}"
2021,3632006,place,"Hannawa Falls, NY",-74.9753602,44.6006781,"{-75.018758,44.574719,-74.948545,44.627335}"
2021,3632017,place,"Hannibal, NY",-76.5777422,43.3194374,"{-76.588658,43.309876,-76.56355,43.328512}"
2021,3632094,place,"Harbor Hills, NY",-73.749019,40.7885882,"{-73.756187,40.782106,-73.743063,40.793053}"
2021,3632105,place,"Harbor Isle, NY",-73.6647196,40.6025083,"{-73.669409,40.596086,-73.660892,40.607241}"
2021,3632325,place,"Harriman, NY",-74.1440935,41.3090565,"{-74.165726,41.300025,-74.124717,41.316698}"
2021,3632391,place,"Harris Hill, NY",-78.679265,42.972969,"{-78.697017,42.956173,-78.659611,42.989289}"
2021,3632402,place,"Harrison, NY",-73.7192829,41.0235377,"{-73.753787,40.959173,-73.684637,41.079546}"
2021,3632523,place,"Hartsdale, NY",-73.8036409,41.0154336,"{-73.818602,41.001787,-73.78778,41.024415}"
2021,3632578,place,"Hartwick, NY",-75.0611092,42.6586093,"{-75.080003,42.638336,-75.026998,42.677457}"
2021,3632597,place,"Hartwick Seminary, NY",-74.9602303,42.6522331,"{-74.968805,42.633075,-74.945717,42.669934}"
2021,3632710,place,"Hastings-on-Hudson, NY",-73.8812359,40.9880407,"{-73.898703,40.974813,-73.857153,41.005297}"
2021,3632732,place,"Hauppauge, NY",-73.2107005,40.8223507,"{-73.272302,40.801677,-73.147782,40.846026}"
2021,3632754,place,"Haverstraw, NY",-73.9433313,41.1782452,"{-73.990127,41.175359,-73.921697,41.209894}"
2021,3632776,place,"Haviland, NY",-73.897933,41.7646239,"{-73.920618,41.742298,-73.877342,41.788503}"
2021,3632842,place,"Hawthorne, NY",-73.7969119,41.1034335,"{-73.808463,41.094745,-73.784442,41.114017}"
2021,3632963,place,"Head of the Harbor, NY",-73.1615357,40.8976582,"{-73.181076,40.871344,-73.142457,40.919538}"
2021,3633128,place,"Hemlock, NY",-77.6074391,42.7937884,"{-77.623999,42.777883,-77.589816,42.81022}"
2021,3633139,place,"Hempstead, NY",-73.6194451,40.7043737,"{-73.643203,40.684493,-73.59849,40.72151}"
2021,3634044,place,"Henderson, NY",-76.1849527,43.8480193,"{-76.196835,43.8416,-76.172246,43.854915}"
2021,3634118,place,"Heritage Hills, NY",-73.7006773,41.3396609,"{-73.72233,41.327367,-73.67917,41.350888}"
2021,3634121,place,"Herkimer, NY",-74.9933058,43.0280782,"{-75.022756,43.015528,-74.962781,43.045909}"
2021,3634165,place,"Hermon, NY",-75.2312461,44.4670512,"{-75.241266,44.459377,-75.223624,44.474687}"
2021,3634198,place,"Herricks, NY",-73.663492,40.7566821,"{-73.673624,40.751528,-73.653207,40.762734}"
2021,3634220,place,"Herrings, NY",-75.6493204,44.0230873,"{-75.662257,44.019242,-75.642636,44.025305}"
2021,3634264,place,"Heuvelton, NY",-75.3999835,44.6163905,"{-75.417163,44.602096,-75.391475,44.626381}"
2021,3634286,place,"Hewlett, NY",-73.6943933,40.6419957,"{-73.710619,40.631726,-73.677555,40.650814}"
2021,3634297,place,"Hewlett Bay Park, NY",-73.695824,40.6351195,"{-73.700883,40.626787,-73.689469,40.64108}"
2021,3634308,place,"Hewlett Harbor, NY",-73.6858977,40.6336187,"{-73.693073,40.622985,-73.673331,40.640983}"
2021,3634319,place,"Hewlett Neck, NY",-73.6970824,40.6247625,"{-73.705613,40.620035,-73.691642,40.628083}"
2021,3634374,place,"Hicksville, NY",-73.5248057,40.7641365,"{-73.560142,40.743002,-73.499665,40.793046}"
2021,3634451,place,"High Falls, NY",-74.1202531,41.8254988,"{-74.137064,41.810221,-74.10318,41.8404}"
2021,3634484,place,"Highland, NY",-73.9621103,41.7215019,"{-73.985412,41.69201,-73.941021,41.74989}"
2021,3634495,place,"Highland Falls, NY",-73.9689239,41.3645648,"{-73.986983,41.344541,-73.959756,41.37903}"
2021,3634528,place,"Highland-on-the-Lake, NY",-78.9824002,42.7017397,"{-79.00263,42.691316,-78.963272,42.717037}"
2021,3634660,place,"Hillburn, NY",-74.1705027,41.127177,"{-74.195264,41.110985,-74.145814,41.137302}"
2021,3634693,place,"Hillcrest, NY",-74.0350108,41.1298142,"{-74.048431,41.117749,-74.023422,41.143919}"
2021,3634786,place,"Hillside, NY",-74.0336862,41.9190497,"{-74.04325,41.907359,-74.020878,41.929391}"
2021,3634803,place,"Hillside Lake, NY",-73.7969703,41.6157638,"{-73.804398,41.612722,-73.785507,41.627114}"
2021,3634847,place,"Hilton, NY",-77.7925586,43.2899716,"{-77.810082,43.277933,-77.774676,43.302858}"
2021,3634979,place,"Hobart, NY",-74.6685407,42.3721557,"{-74.680374,42.366572,-74.657735,42.378983}"
2021,3635056,place,"Holbrook, NY",-73.0700222,40.7943734,"{-73.097966,40.764568,-73.042388,40.832317}"
2021,3635111,place,"Holland, NY",-78.5517747,42.6374759,"{-78.580707,42.61795,-78.518846,42.663323}"
2021,3635144,place,"Holland Patent, NY",-75.2565746,43.2411474,"{-75.266386,43.235437,-75.24578,43.248893}"
2021,3635155,place,"Holley, NY",-78.0291937,43.2246566,"{-78.042202,43.217059,-78.016631,43.235495}"
2021,3635254,place,"Holtsville, NY",-73.0446532,40.8123733,"{-73.081805,40.784921,-73.009935,40.8364}"
2021,3635276,place,"Homer, NY",-76.1853767,42.6372333,"{-76.202806,42.61704,-76.172191,42.652608}"
2021,3635353,place,"Honeoye, NY",-77.512469,42.7885819,"{-77.532648,42.778791,-77.494504,42.794674}"
2021,3635364,place,"Honeoye Falls, NY",-77.5911265,42.9546773,"{-77.60834,42.943963,-77.570859,42.968399}"
2021,3635474,place,"Hoosick Falls, NY",-73.3499679,42.9009068,"{-73.363025,42.88865,-73.33767,42.911376}"
2021,3635573,place,"Hopewell Junction, NY",-73.8116381,41.5801928,"{-73.821471,41.570977,-73.798496,41.589953}"
2021,3635672,place,"Hornell, NY",-77.6632151,42.3330435,"{-77.687046,42.295475,-77.632453,42.392235}"
2021,3635694,place,"Horseheads, NY",-76.8296585,42.1686317,"{-76.853559,42.144321,-76.796257,42.19035}"
2021,3635710,place,"Horseheads North, NY",-76.8046641,42.1966398,"{-76.837911,42.181216,-76.784092,42.199876}"
2021,3635738,place,"Hortonville, NY",-75.0220389,41.766137,"{-75.032942,41.756715,-75.007213,41.774491}"
2021,3635771,place,"Houghton, NY",-78.1726457,42.4282985,"{-78.191433,42.4072,-78.132231,42.435924}"
2021,3635969,place,"Hudson, NY",-73.7860284,42.2519047,"{-73.808974,42.239187,-73.768079,42.263473}"
2021,3635980,place,"Hudson Falls, NY",-73.5815867,43.3047354,"{-73.596599,43.290903,-73.565577,43.316502}"
2021,3636156,place,"Hunt, NY",-77.9912036,42.5475663,"{-77.996741,42.543306,-77.987026,42.551314}"
2021,3636167,place,"Hunter, NY",-74.2154315,42.2105316,"{-74.241941,42.193131,-74.193981,42.224261}"
2021,3636233,place,"Huntington, NY",-73.4057607,40.8753892,"{-73.445374,40.853091,-73.368152,40.907397}"
2021,3637022,place,"Huntington Bay, NY",-73.4121274,40.9035556,"{-73.434464,40.892098,-73.388139,40.914256}"
2021,3637044,place,"Huntington Station, NY",-73.4048123,40.8444877,"{-73.432183,40.828197,-73.37049,40.866645}"
2021,3637132,place,"Hurley, NY",-74.0622472,41.9102092,"{-74.089828,41.890737,-74.029201,41.939366}"
2021,3637154,place,"Hurleyville, NY",-74.6753569,41.7418587,"{-74.687681,41.731445,-74.663246,41.753769}"
2021,3637198,place,"Hyde Park, NY",-73.9346985,41.783611,"{-73.948055,41.771952,-73.921977,41.796949}"
2021,3637275,place,"Ilion, NY",-75.0396546,43.0112605,"{-75.058809,42.996791,-75.018005,43.024046}"
2021,3637528,place,"Interlaken, NY",-76.7254736,42.6178201,"{-76.735059,42.613104,-76.717172,42.625505}"
2021,3637583,place,"Inwood, NY",-73.7569899,40.6213463,"{-73.768838,40.610405,-73.73153,40.634631}"
2021,3637737,place,"Irondequoit, NY",-77.5720564,43.2098109,"{-77.623425,43.166758,-77.521321,43.258592}"
2021,3637803,place,"Irvington, NY",-73.8670276,41.0342581,"{-73.89038,41.02223,-73.836036,41.048725}"
2021,3637840,place,"Islandia, NY",-73.1710837,40.8068617,"{-73.197293,40.795478,-73.150636,40.817383}"
2021,3637847,place,"Island Park, NY",-73.6553002,40.6052205,"{-73.662022,40.596419,-73.648312,40.616959}"
2021,3637869,place,"Islip, NY",-73.2161128,40.7303187,"{-73.241248,40.700002,-73.199345,40.763274}"
2021,3638022,place,"Islip Terrace, NY",-73.1868889,40.7502691,"{-73.20143,40.742723,-73.169984,40.757383}"
2021,3638077,place,"Ithaca, NY",-76.5030548,42.443937,"{-76.526947,42.418327,-76.469803,42.467079}"
2021,3638209,place,"Jacksonville, NY",-76.618788,42.5060992,"{-76.635707,42.494579,-76.589442,42.52461}"
2021,3638253,place,"Jamesport, NY",-72.5831735,40.9609665,"{-72.611119,40.929349,-72.554024,40.975587}"
2021,3638264,place,"Jamestown, NY",-79.2361352,42.0976026,"{-79.271214,42.076034,-79.206097,42.126444}"
2021,3638275,place,"Jamestown West, NY",-79.2810361,42.0884557,"{-79.295179,42.075897,-79.263146,42.107472}"
2021,3638429,place,"Jefferson, NY",-74.6033239,42.4781701,"{-74.624192,42.473374,-74.591821,42.491557}"
2021,3638451,place,"Jefferson Heights, NY",-73.8820988,42.2356425,"{-73.893445,42.221469,-73.8697,42.251703}"
2021,3638500,place,"Jefferson Valley-Yorktown, NY",-73.799864,41.3186685,"{-73.827095,41.292162,-73.773737,41.342647}"
2021,3638506,place,"Jeffersonville, NY",-74.9258534,41.7775212,"{-74.94126,41.774836,-74.918118,41.786975}"
2021,3638539,place,"Jericho, NY",-73.5416155,40.7874468,"{-73.568826,40.771543,-73.515032,40.802862}"
2021,3638748,place,"Johnson City, NY",-75.9634065,42.1252884,"{-75.98433,42.093769,-75.94535,42.146605}"
2021,3638781,place,"Johnstown, NY",-74.3750646,43.0073347,"{-74.415889,42.984569,-74.348933,43.03549}"
2021,3638825,place,"Jordan, NY",-76.4729198,43.0670686,"{-76.483366,43.056542,-76.460749,43.07734}"
2021,3638934,place,"Kaser, NY",-74.0685746,41.1212575,"{-74.075883,41.113733,-74.063414,41.129162}"
2021,3638946,place,"Katonah, NY",-73.6851848,41.2550685,"{-73.695077,41.245741,-73.676391,41.26629}"
2021,3638985,place,"Kauneonga Lake, NY",-74.8330977,41.6892605,"{-74.850473,41.678405,-74.819474,41.701292}"
2021,3639089,place,"Keeseville, NY",-73.4811091,44.504096,"{-73.5115,44.47807,-73.450014,44.531939}"
2021,3639232,place,"Kenmore, NY",-78.8712899,42.9646327,"{-78.88949,42.958572,-78.853032,42.97324}"
2021,3639243,place,"Kennedy, NY",-79.0982872,42.1589477,"{-79.11045,42.141073,-79.082133,42.173796}"
2021,3639309,place,"Kensington, NY",-73.7222419,40.7930773,"{-73.733075,40.790182,-73.709498,40.795676}"
2021,3639397,place,"Kerhonkson, NY",-74.2754242,41.7826406,"{-74.327555,41.739425,-74.255993,41.798921}"
2021,3639463,place,"Keuka Park, NY",-77.0924053,42.6125358,"{-77.103901,42.602215,-77.082369,42.625069}"
2021,3639485,place,"Kiamesha Lake, NY",-74.6686311,41.6807721,"{-74.67805,41.668186,-74.652632,41.692931}"
2021,3639562,place,"Kinderhook, NY",-73.7037683,42.3943824,"{-73.71652,42.375871,-73.688144,42.408362}"
2021,3639672,place,"Kings Park, NY",-73.245571,40.8869638,"{-73.288521,40.866393,-73.208725,40.909907}"
2021,3639694,place,"Kings Point, NY",-73.7393198,40.817892,"{-73.7653,40.797565,-73.712575,40.840425}"
2021,3639727,place,"Kingston, NY",-73.9967823,41.9301241,"{-74.044629,41.902063,-73.953709,41.952748}"
2021,3639853,place,"Kiryas Joel, NY",-74.1672741,41.3406673,"{-74.181911,41.325441,-74.153312,41.355365}"
2021,3640175,place,"Kysorville, NY",-77.7948809,42.6528448,"{-77.808133,42.642537,-77.780837,42.661347}"
2021,3640189,place,"Lackawanna, NY",-78.8327692,42.8184241,"{-78.872667,42.804306,-78.793431,42.832299}"
2021,3640200,place,"Lacona, NY",-76.0660657,43.6426538,"{-76.076627,43.634731,-76.051859,43.652329}"
2021,3640233,place,"La Fargeville, NY",-75.9546453,44.1932647,"{-75.994632,44.173009,-75.924176,44.212652}"
2021,3640398,place,"Lake Carmel, NY",-73.663331,41.4627458,"{-73.692255,41.436252,-73.650599,41.497116}"
2021,3640475,place,"Lake Delta, NY",-75.4690915,43.286754,"{-75.495607,43.273793,-75.440821,43.303916}"
2021,3640486,place,"Lake Erie Beach, NY",-79.0785634,42.624182,"{-79.112168,42.610264,-79.052849,42.645675}"
2021,3640508,place,"Lake George, NY",-73.7151683,43.4259236,"{-73.722054,43.416489,-73.706584,43.436169}"
2021,3640530,place,"Lake Grove, NY",-73.1168438,40.8578166,"{-73.131654,40.835352,-73.102722,40.883193}"
2021,3640552,place,"Lake Huntington, NY",-74.9941903,41.6800386,"{-75.007179,41.671865,-74.978826,41.697118}"
2021,3640585,place,"Lake Katrine, NY",-73.9897588,41.9852184,"{-74.008228,41.974035,-73.970868,42.003606}"
2021,3640607,place,"Lakeland, NY",-76.2426435,43.0908585,"{-76.260074,43.075974,-76.226483,43.106678}"
2021,3640651,place,"Lake Luzerne, NY",-73.8435299,43.3299145,"{-73.875434,43.286032,-73.818892,43.366069}"
2021,3640689,place,"Lake Mohegan, NY",-73.8480574,41.3188029,"{-73.861933,41.293714,-73.832878,41.336397}"
2021,3640761,place,"Lake Placid, NY",-73.9864264,44.28417,"{-74.000093,44.270142,-73.971507,44.298811}"
2021,3640838,place,"Lake Ronkonkoma, NY",-73.1132984,40.8303179,"{-73.148576,40.806921,-73.086453,40.854307}"
2021,3640937,place,"Lake Success, NY",-73.7111116,40.7638827,"{-73.729697,40.752493,-73.688778,40.782778}"
2021,3641003,place,"Lakeview, NY",-73.649718,40.6777325,"{-73.662551,40.662938,-73.632711,40.690265}"
2021,3641036,place,"Lakeville, NY",-77.703154,42.8367612,"{-77.715871,42.829427,-77.688477,42.844882}"
2021,3641069,place,"Lakewood, NY",-79.3201018,42.0991414,"{-79.344225,42.093289,-79.295089,42.107055}"
2021,3641135,place,"Lancaster, NY",-78.6687755,42.9005999,"{-78.68563,42.885632,-78.657138,42.918101}"
2021,3641223,place,"Lansing, NY",-76.4865208,42.4901499,"{-76.519431,42.47731,-76.450579,42.514758}"
2021,3641333,place,"Larchmont, NY",-73.7519603,40.9259606,"{-73.765675,40.913086,-73.742614,40.936326}"
2021,3641399,place,"Latham, NY",-73.7503772,42.742235,"{-73.783753,42.724167,-73.712702,42.763052}"
2021,3641432,place,"Lattingtown, NY",-73.5953435,40.8946396,"{-73.621023,40.876556,-73.57199,40.909295}"
2021,3641465,place,"Laurel, NY",-72.5545317,40.9729178,"{-72.582422,40.95194,-72.532797,40.986893}"
2021,3641487,place,"Laurel Hollow, NY",-73.477542,40.8566996,"{-73.494425,40.836927,-73.455261,40.879998}"
2021,3641520,place,"Laurens, NY",-75.0887158,42.5313186,"{-75.094608,42.528977,-75.083259,42.534352}"
2021,3641553,place,"Lawrence, NY",-73.714434,40.6029236,"{-73.745492,40.590704,-73.684642,40.621627}"
2021,3641784,place,"Leeds, NY",-73.8935328,42.2553839,"{-73.904548,42.244429,-73.879009,42.265425}"
2021,3641872,place,"Leicester, NY",-77.896904,42.7709392,"{-77.904826,42.766252,-77.88722,42.775751}"
2021,3642026,place,"Le Roy, NY",-77.9908735,42.9780055,"{-78.009825,42.961032,-77.973642,42.995517}"
2021,3642081,place,"Levittown, NY",-73.5127085,40.7239901,"{-73.54569,40.700017,-73.484245,40.743601}"
2021,3642147,place,"Lewiston, NY",-79.0395605,43.1718691,"{-79.052925,43.16455,-79.02628,43.179977}"
2021,3642224,place,"Liberty, NY",-74.7431951,41.7965932,"{-74.768645,41.774014,-74.711016,41.812996}"
2021,3642279,place,"Lido Beach, NY",-73.596395,40.5885471,"{-73.637655,40.574655,-73.574411,40.597351}"
2021,3642323,place,"Lima, NY",-77.6122653,42.9069456,"{-77.622639,42.895421,-77.600426,42.917026}"
2021,3642345,place,"Lime Lake, NY",-78.4846836,42.4330017,"{-78.497567,42.418456,-78.466007,42.445978}"
2021,3642378,place,"Limestone, NY",-78.6313265,42.0172669,"{-78.651603,42.011938,-78.61952,42.033046}"
2021,3642455,place,"Lincolndale, NY",-73.7266981,41.3353208,"{-73.736007,41.318662,-73.710347,41.348299}"
2021,3642488,place,"Lincoln Park, NY",-74.0048115,41.9580414,"{-74.015543,41.944336,-73.990002,41.969624}"
2021,3642554,place,"Lindenhurst, NY",-73.3715941,40.6857512,"{-73.393915,40.6645,-73.351889,40.708298}"
2021,3642609,place,"Linwood, NY",-77.9476016,42.8967047,"{-77.95553,42.886447,-77.939791,42.905861}"
2021,3642642,place,"Lisle, NY",-76.0055221,42.3490541,"{-76.013428,42.339028,-75.991704,42.361714}"
2021,3642741,place,"Little Falls, NY",-74.8566876,43.0448346,"{-74.88368,43.025833,-74.830925,43.063896}"
2021,3642829,place,"Little Valley, NY",-78.7987507,42.2493648,"{-78.811485,42.243015,-78.782347,42.25955}"
2021,3642884,place,"Liverpool, NY",-76.2096645,43.1055659,"{-76.2227,43.0969,-76.198204,43.115029}"
2021,3642928,place,"Livingston Manor, NY",-74.8236427,41.8871637,"{-74.848091,41.877815,-74.79959,41.911174}"
2021,3642950,place,"Livonia, NY",-77.6688,42.8219296,"{-77.680699,42.814666,-77.65863,42.829302}"
2021,3642972,place,"Livonia Center, NY",-77.6420109,42.8210599,"{-77.653199,42.812069,-77.628252,42.829224}"
2021,3643005,place,"Lloyd Harbor, NY",-73.4433864,40.921496,"{-73.497405,40.875271,-73.428762,40.946929}"
2021,3643038,place,"Loch Sheldrake, NY",-74.65965,41.7752164,"{-74.674271,41.754172,-74.63929,41.783951}"
2021,3643082,place,"Lockport, NY",-78.6958069,43.1694596,"{-78.738898,43.143742,-78.662373,43.193908}"
2021,3643192,place,"Locust Valley, NY",-73.5893334,40.8780831,"{-73.614551,40.870629,-73.564658,40.884737}"
2021,3643214,place,"Lodi, NY",-76.8219779,42.6133996,"{-76.835663,42.606719,-76.809382,42.621147}"
2021,3643335,place,"Long Beach, NY",-73.6654031,40.5858353,"{-73.701399,40.574632,-73.635702,40.595839}"
2021,3643401,place,"Long Lake, NY",-74.4269131,43.9674744,"{-74.483211,43.898852,-74.392517,44.005881}"
2021,3643511,place,"Lorenz Park, NY",-73.7760213,42.2699511,"{-73.790225,42.252789,-73.753147,42.280535}"
2021,3643533,place,"Lorraine, NY",-75.9522231,43.7655124,"{-75.962766,43.760733,-75.941283,43.769571}"
2021,3643566,place,"Loudonville, NY",-73.7630788,42.7097304,"{-73.793925,42.679323,-73.738596,42.727846}"
2021,3643720,place,"Lowville, NY",-75.4874165,43.7866672,"{-75.50584,43.774654,-75.46404,43.798419}"
2021,3643874,place,"Lynbrook, NY",-73.6741989,40.657883,"{-73.690776,40.643157,-73.65574,40.671297}"
2021,3643885,place,"Lyncourt, NY",-76.1263875,43.0820588,"{-76.147328,43.072917,-76.102573,43.090025}"
2021,3643918,place,"Lyndonville, NY",-78.3888693,43.3213454,"{-78.399946,43.31392,-78.378796,43.329832}"
2021,3643951,place,"Lyon Mountain, NY",-73.8662968,44.7183174,"{-73.93249,44.702602,-73.829389,44.752981}"
2021,3643962,place,"Lyons, NY",-76.9909533,43.0635094,"{-77.018908,43.041945,-76.963613,43.086457}"
2021,3644006,place,"Lyons Falls, NY",-75.3616345,43.6170076,"{-75.376043,43.605303,-75.347629,43.632465}"
2021,3644105,place,"MacDonnell Heights, NY",-73.8606145,41.7165378,"{-73.870596,41.707294,-73.853219,41.726812}"
2021,3644149,place,"Macedon, NY",-77.3002832,43.064833,"{-77.320844,43.055828,-77.277754,43.076877}"
2021,3644193,place,"McGraw, NY",-76.0975024,42.5937649,"{-76.107449,42.586078,-76.087404,42.601479}"
2021,3644226,place,"Machias, NY",-78.4870524,42.413621,"{-78.505674,42.406191,-78.475041,42.424411}"
2021,3644358,place,"McLean, NY",-76.2923155,42.5488093,"{-76.300966,42.544179,-76.288241,42.560948}"
2021,3644424,place,"Madison, NY",-75.512291,42.8977412,"{-75.518848,42.892023,-75.505481,42.903475}"
2021,3644479,place,"Madrid, NY",-75.1293513,44.7473808,"{-75.158945,44.734627,-75.1033,44.766142}"
2021,3644534,place,"Mahopac, NY",-73.74069,41.369734,"{-73.769386,41.344875,-73.711563,41.397919}"
2021,3644677,place,"Malden-on-Hudson, NY",-73.9364751,42.0932264,"{-73.943372,42.080308,-73.93097,42.103546}"
2021,3644710,place,"Malone, NY",-74.2895797,44.8482211,"{-74.310869,44.832297,-74.258392,44.863972}"
2021,3644787,place,"Malverne, NY",-73.6721013,40.6745409,"{-73.686008,40.666198,-73.658188,40.683557}"
2021,3644792,place,"Malverne Park Oaks, NY",-73.6644145,40.6816549,"{-73.67979,40.678131,-73.654876,40.683659}"
2021,3644831,place,"Mamaroneck, NY",-73.7261379,40.9364521,"{-73.749864,40.889044,-73.709574,40.969298}"
2021,3644853,place,"Manchester, NY",-77.2316372,42.9681139,"{-77.246137,42.959355,-77.216085,42.977996}"
2021,3644897,place,"Manhasset, NY",-73.6948789,40.7849771,"{-73.715942,40.771501,-73.667439,40.803564}"
2021,3644908,place,"Manhasset Hills, NY",-73.6808696,40.7591369,"{-73.694155,40.75176,-73.667256,40.764116}"
2021,3645018,place,"Manlius, NY",-75.982232,43.001438,"{-76.012061,42.989172,-75.956056,43.013074}"
2021,3645073,place,"Mannsville, NY",-76.0668154,43.7178142,"{-76.073806,43.707515,-76.056104,43.724068}"
2021,3645106,place,"Manorhaven, NY",-73.7108246,40.8388504,"{-73.7223,40.8314,-73.702974,40.847309}"
2021,3645139,place,"Manorville, NY",-72.7875206,40.8623282,"{-72.865675,40.819873,-72.734369,40.905345}"
2021,3645392,place,"Marathon, NY",-76.0362383,42.4448085,"{-76.047141,42.432242,-76.023639,42.458969}"
2021,3645480,place,"Marcellus, NY",-76.3405002,42.9837066,"{-76.347597,42.973763,-76.333536,42.994649}"
2021,3645524,place,"Marcy, NY",-75.2557144,43.1314472,"{-75.296347,43.122924,-75.242239,43.149668}"
2021,3645557,place,"Margaretville, NY",-74.6507083,42.145267,"{-74.660759,42.135437,-74.638654,42.153279}"
2021,3645573,place,"Mariaville Lake, NY",-74.1303146,42.8248261,"{-74.175892,42.809237,-74.08326,42.842068}"
2021,3645634,place,"Marion, NY",-77.1939988,43.1420049,"{-77.217156,43.12655,-77.175536,43.156557}"
2021,3645659,place,"Marist College, NY",-73.9333407,41.7222266,"{-73.937246,41.715496,-73.925124,41.728444}"
2021,3645700,place,"Marlboro, NY",-73.9771518,41.6038113,"{-74.004434,41.585171,-73.952274,41.63236}"
2021,3645986,place,"Massapequa, NY",-73.4715151,40.6683024,"{-73.487036,40.646001,-73.454168,40.692947}"
2021,3645997,place,"Massapequa Park, NY",-73.4496893,40.6809094,"{-73.464437,40.650822,-73.436317,40.705608}"
2021,3646019,place,"Massena, NY",-74.8929731,44.9290237,"{-74.924371,44.904059,-74.859528,44.948324}"
2021,3646074,place,"Mastic, NY",-72.8479863,40.8096529,"{-72.865094,40.786842,-72.826668,40.834377}"
2021,3646085,place,"Mastic Beach, NY",-72.8367224,40.7657223,"{-72.868108,40.740694,-72.807162,40.78856}"
2021,3646107,place,"Matinecock, NY",-73.5804716,40.8593523,"{-73.604889,40.844793,-73.560253,40.878777}"
2021,3646140,place,"Mattituck, NY",-72.543521,41.0072979,"{-72.598112,40.976052,-72.49953,41.0457}"
2021,3646151,place,"Mattydale, NY",-76.1388302,43.0991762,"{-76.163826,43.091882,-76.116761,43.112165}"
2021,3646162,place,"Maybrook, NY",-74.2124683,41.4880262,"{-74.230867,41.472136,-74.200702,41.504062}"
2021,3646206,place,"Mayfield, NY",-74.2660139,43.1019333,"{-74.275298,43.089948,-74.251988,43.114914}"
2021,3646239,place,"Mayville, NY",-79.501913,42.2530992,"{-79.521378,42.232117,-79.483739,42.267429}"
2021,3646349,place,"Mechanicstown, NY",-74.3921452,41.4476412,"{-74.419273,41.427872,-74.369989,41.472072}"
2021,3646360,place,"Mechanicville, NY",-73.6888878,42.9041409,"{-73.700075,42.887132,-73.678913,42.913094}"
2021,3646404,place,"Medford, NY",-72.9859179,40.8219786,"{-73.021265,40.794039,-72.953863,40.852093}"
2021,3646415,place,"Medina, NY",-78.3878736,43.2197422,"{-78.415535,43.204077,-78.370037,43.234122}"
2021,3646503,place,"Melrose Park, NY",-76.5140542,42.9056439,"{-76.552811,42.887235,-76.500028,42.927285}"
2021,3646514,place,"Melville, NY",-73.4088235,40.782357,"{-73.448763,40.751287,-73.368081,40.815497}"
2021,3646536,place,"Menands, NY",-73.7261881,42.6911799,"{-73.751544,42.672879,-73.702921,42.708311}"
2021,3646646,place,"Meridian, NY",-76.538182,43.1629633,"{-76.54706,43.156685,-76.529692,43.169556}"
2021,3646668,place,"Merrick, NY",-73.5519267,40.6516365,"{-73.576914,40.624983,-73.527276,40.68007}"
2021,3646750,place,"Merritt Park, NY",-73.8723896,41.5384816,"{-73.882327,41.532751,-73.862452,41.542911}"
2021,3646811,place,"Mexico, NY",-76.2325741,43.465218,"{-76.247557,43.453576,-76.217658,43.476881}"
2021,3646866,place,"Middleburgh, NY",-74.3298284,42.5979793,"{-74.340772,42.585918,-74.315954,42.610282}"
2021,3646976,place,"Middle Island, NY",-72.9511747,40.8925094,"{-72.977042,40.849747,-72.914992,40.908528}"
2021,3646998,place,"Middleport, NY",-78.4757272,43.2117223,"{-78.484646,43.202518,-78.465455,43.221859}"
2021,3647042,place,"Middletown, NY",-74.4235731,41.4449222,"{-74.452908,41.417408,-74.392806,41.474347}"
2021,3647108,place,"Middleville, NY",-74.9702345,43.1389374,"{-74.98218,43.129769,-74.961114,43.147595}"
2021,3647229,place,"Milford, NY",-74.9468648,42.5904705,"{-74.955382,42.58454,-74.938862,42.596954}"
2021,3647273,place,"Millbrook, NY",-73.6920916,41.7848623,"{-73.72311,41.773733,-73.675334,41.801299}"
2021,3647306,place,"Miller Place, NY",-72.9933417,40.943115,"{-73.021567,40.904087,-72.956664,40.974946}"
2021,3647361,place,"Millerton, NY",-73.5130763,41.9554851,"{-73.521941,41.942161,-73.498888,41.959494}"
2021,3647405,place,"Mill Neck, NY",-73.5589679,40.8821323,"{-73.575204,40.867187,-73.541245,40.902962}"
2021,3647427,place,"Millport, NY",-76.8362444,42.2681007,"{-76.841909,42.258218,-76.83089,42.278702}"
2021,3647482,place,"Millwood, NY",-73.7930473,41.2027526,"{-73.807432,41.180124,-73.78525,41.208525}"
2021,3647548,place,"Milton, NY",-73.8538189,43.0375263,"{-73.889531,43.02257,-73.838091,43.048651}"
2021,3647554,place,"Milton, NY",-73.9696248,41.6562197,"{-73.988806,41.615972,-73.951649,41.682881}"
2021,3647636,place,"Mineola, NY",-73.639363,40.7470263,"{-73.657912,40.736993,-73.62127,40.759992}"
2021,3647680,place,"Minetto, NY",-76.4809653,43.4020158,"{-76.508068,43.377169,-76.446417,43.429889}"
2021,3647702,place,"Mineville, NY",-73.5214273,44.0928558,"{-73.553474,44.072352,-73.493484,44.109657}"
2021,3647757,place,"Minoa, NY",-76.0082907,43.0742275,"{-76.020475,43.061862,-75.991809,43.084224}"
2021,3647823,place,"Mohawk, NY",-75.0071392,43.0093769,"{-75.020754,43.000656,-74.992729,43.016487}"
2021,3647977,place,"Mongaup Valley, NY",-74.7798871,41.6803251,"{-74.805882,41.650204,-74.759577,41.71106}"
2021,3647988,place,"Monroe, NY",-74.185748,41.3176977,"{-74.20702,41.297927,-74.160106,41.341165}"
2021,3648010,place,"Monsey, NY",-74.0769723,41.1094767,"{-74.08494,41.099626,-74.048725,41.136346}"
2021,3648054,place,"Montauk, NY",-71.9463695,41.0475384,"{-72.06269,40.994054,-71.847707,41.095221}"
2021,3648090,place,"Montebello, NY",-74.1100779,41.1307948,"{-74.142997,41.112214,-74.089127,41.151165}"
2021,3648142,place,"Montgomery, NY",-74.2386611,41.5212657,"{-74.254468,41.508877,-74.219382,41.532926}"
2021,3648175,place,"Monticello, NY",-74.6877605,41.6525281,"{-74.727282,41.633767,-74.638771,41.673398}"
2021,3648197,place,"Montour Falls, NY",-76.8486973,42.348668,"{-76.873051,42.334497,-76.828697,42.366462}"
2021,3648208,place,"Montrose, NY",-73.9438365,41.2389005,"{-73.961383,41.226346,-73.916537,41.258739}"
2021,3648241,place,"Mooers, NY",-73.5954628,44.96363,"{-73.604102,44.955516,-73.563644,44.974909}"
2021,3648296,place,"Moravia, NY",-76.4230527,42.7121448,"{-76.43796,42.700614,-76.406013,42.722296}"
2021,3648450,place,"Moriches, NY",-72.8269917,40.805414,"{-72.839904,40.783767,-72.805576,40.823007}"
2021,3648483,place,"Morris, NY",-75.2452916,42.5481183,"{-75.257667,42.542064,-75.232614,42.554238}"
2021,3648538,place,"Morrisonville, NY",-73.5589245,44.6936603,"{-73.590605,44.678561,-73.520738,44.706916}"
2021,3648571,place,"Morristown, NY",-75.6454597,44.5840133,"{-75.657574,44.573569,-75.631663,44.596353}"
2021,3648593,place,"Morrisville, NY",-75.6447553,42.8986986,"{-75.65533,42.891142,-75.634433,42.906228}"
2021,3648736,place,"Mountain Dale, NY",-74.5205784,41.6912532,"{-74.552082,41.669625,-74.491062,41.719448}"
2021,3648750,place,"Mountain Lodge Park, NY",-74.1417612,41.386534,"{-74.163167,41.375288,-74.122466,41.397748}"
2021,3648879,place,"Mount Ivy, NY",-74.0295791,41.1926692,"{-74.053024,41.185241,-74.00454,41.204462}"
2021,3648890,place,"Mount Kisco, NY",-73.7282581,41.2016956,"{-73.750662,41.185684,-73.710119,41.223156}"
2021,3648945,place,"Mount Morris, NY",-77.8752072,42.7236954,"{-77.89255,42.70811,-77.858364,42.742121}"
2021,3649066,place,"Mount Sinai, NY",-73.020242,40.9417795,"{-73.054717,40.907641,-72.986373,40.974603}"
2021,3649121,place,"Mount Vernon, NY",-73.8293172,40.9131051,"{-73.853528,40.889477,-73.805023,40.935357}"
2021,3649143,place,"Mount Vision, NY",-75.0517283,42.583077,"{-75.064283,42.561299,-75.035764,42.595607}"
2021,3649220,place,"Munnsville, NY",-75.5865212,42.9765494,"{-75.597501,42.969767,-75.575682,42.983103}"
2021,3649231,place,"Munsey Park, NY",-73.6798501,40.798993,"{-73.693765,40.794427,-73.668622,40.803497}"
2021,3649242,place,"Munsons Corners, NY",-76.2021452,42.5738491,"{-76.22617,42.564796,-76.186673,42.588402}"
2021,3649330,place,"Muttontown, NY",-73.5363381,40.8253939,"{-73.571467,40.794915,-73.505749,40.848607}"
2021,3649363,place,"Myers Corner, NY",-73.8836602,41.5844844,"{-73.90913,41.552357,-73.843211,41.622791}"
2021,3649407,place,"Nanuet, NY",-74.0158791,41.0954776,"{-74.040424,41.07832,-73.985199,41.122745}"
2021,3649418,place,"Napanoch, NY",-74.3718591,41.7526218,"{-74.385265,41.738212,-74.358727,41.769297}"
2021,3649424,place,"Napeague, NY",-72.0642198,40.9984695,"{-72.111578,40.96787,-72.020157,41.025691}"
2021,3649429,place,"Naples, NY",-77.4021215,42.6174539,"{-77.412787,42.605839,-77.390008,42.62887}"
2021,3649473,place,"Narrowsburg, NY",-75.0507865,41.6011278,"{-75.074809,41.58721,-75.039915,41.618579}"
2021,3649506,place,"Nassau, NY",-73.6107498,42.5139631,"{-73.621558,42.503802,-73.601362,42.523928}"
2021,3649555,place,"Nassau Lake, NY",-73.6091358,42.5386126,"{-73.618034,42.520995,-73.591775,42.550558}"
2021,3649605,place,"Natural Bridge, NY",-75.5001823,44.071478,"{-75.511649,44.060027,-75.484957,44.084302}"
2021,3649715,place,"Nazareth College, NY",-77.5193475,43.103104,"{-77.525503,43.098928,-77.513982,43.106881}"
2021,3649726,place,"Nedrow, NY",-76.1416481,42.9779979,"{-76.153119,42.966181,-76.131684,42.987833}"
2021,3649748,place,"Nelliston, NY",-74.607642,42.9326792,"{-74.626106,42.918199,-74.594353,42.946885}"
2021,3649781,place,"Nelsonville, NY",-73.9499137,41.4294743,"{-73.959486,41.419771,-73.936507,41.439295}"
2021,3649825,place,"Nesconset, NY",-73.1520076,40.8468555,"{-73.174552,40.827658,-73.127349,40.862137}"
2021,3649891,place,"Newark, NY",-77.0940237,43.0420094,"{-77.127319,43.015241,-77.055384,43.065025}"
2021,3649902,place,"Newark Valley, NY",-76.1867762,42.2229054,"{-76.195059,42.21062,-76.176098,42.235276}"
2021,3649924,place,"New Baltimore, NY",-73.7949556,42.4503637,"{-73.808949,42.430013,-73.782027,42.464231}"
2021,3649946,place,"New Berlin, NY",-75.335317,42.6239828,"{-75.344559,42.613098,-75.322983,42.633516}"
2021,3650034,place,"Newburgh, NY",-74.0196402,41.5032494,"{-74.048638,41.487212,-73.994784,41.519208}"
2021,3650067,place,"New Cassel, NY",-73.5649335,40.7602021,"{-73.581667,40.749524,-73.549553,40.777324}"
2021,3650100,place,"New City, NY",-73.9904257,41.1522046,"{-74.025259,41.10742,-73.943808,41.19251}"
2021,3650221,place,"Newfane, NY",-78.6939451,43.2856834,"{-78.716807,43.252479,-78.668916,43.30877}"
2021,3650243,place,"Newfield, NY",-76.5938095,42.3575108,"{-76.618063,42.345641,-76.563234,42.369875}"
2021,3650265,place,"New Hackensack, NY",-73.8600063,41.619623,"{-73.875885,41.605624,-73.841748,41.640614}"
2021,3650276,place,"New Hamburg, NY",-73.9412039,41.5885832,"{-73.954725,41.58179,-73.927721,41.597837}"
2021,3650298,place,"New Hartford, NY",-75.288618,43.0710381,"{-75.298571,43.062668,-75.27749,43.079585}"
2021,3650353,place,"New Hempstead, NY",-74.0510343,41.1457088,"{-74.070973,41.12825,-74.031492,41.169173}"
2021,3650397,place,"New Hyde Park, NY",-73.6858636,40.7322731,"{-73.69721,40.723318,-73.674893,40.741821}"
2021,3650551,place,"New Paltz, NY",-74.0797377,41.749942,"{-74.099165,41.731487,-74.05961,41.763465}"
2021,3650573,place,"Newport, NY",-75.0160228,43.186845,"{-75.02397,43.178422,-75.007484,43.193228}"
2021,3650617,place,"New Rochelle, NY",-73.7793439,40.9232433,"{-73.807003,40.871721,-73.740597,40.988336}"
2021,3650705,place,"New Square, NY",-74.0293617,41.1410222,"{-74.035835,41.135612,-74.022626,41.147608}"
2021,3650727,place,"New Suffolk, NY",-72.4774722,40.9967536,"{-72.484103,40.988676,-72.468889,41.004109}"
2021,3650837,place,"New Windsor, NY",-74.0318317,41.4698297,"{-74.049683,41.454336,-74.007143,41.493339}"
2021,3651000,place,"New York, NY",-73.9386769,40.6627117,"{-74.258843,40.476578,-73.700169,40.917705}"
2021,3651011,place,"New York Mills, NY",-75.2931141,43.1007037,"{-75.307557,43.087809,-75.279842,43.115403}"
2021,3651055,place,"Niagara Falls, NY",-79.0147434,43.0928407,"{-79.075367,43.066956,-78.941852,43.132414}"
2021,3651088,place,"Niagara University, NY",-79.0351271,43.1372117,"{-79.041782,43.132763,-79.028871,43.141648}"
2021,3651110,place,"Nichols, NY",-76.3704018,42.0200171,"{-76.378527,42.015357,-76.358689,42.026386}"
2021,3651262,place,"Niskayuna, NY",-73.8874272,42.8048956,"{-73.918344,42.764249,-73.844471,42.851076}"
2021,3651286,place,"Nissequogue, NY",-73.1862461,40.9027162,"{-73.232577,40.875136,-73.14906,40.930137}"
2021,3651297,place,"Niverville, NY",-73.6484402,42.4491198,"{-73.67077,42.428814,-73.624669,42.465455}"
2021,3651319,place,"Norfolk, NY",-74.9880266,44.7886372,"{-75.000198,44.766554,-74.965508,44.814132}"
2021,3651396,place,"North Amityville, NY",-73.4118845,40.7005252,"{-73.430244,40.687405,-73.393019,40.718139}"
2021,3651418,place,"Northampton, NY",-72.6840774,40.8751586,"{-72.723387,40.844353,-72.638002,40.909683}"
2021,3651440,place,"North Babylon, NY",-73.3249301,40.7314536,"{-73.343878,40.710525,-73.306479,40.750509}"
2021,3651467,place,"North Ballston Spa, NY",-73.8521736,43.0195562,"{-73.869942,43.009022,-73.837087,43.026123}"
2021,3651484,place,"North Bay, NY",-75.7444397,43.2284514,"{-75.76239,43.220081,-75.729851,43.239105}"
2021,3651495,place,"North Bay Shore, NY",-73.2616742,40.760191,"{-73.27995,40.745555,-73.228101,40.777152}"
2021,3651517,place,"North Bellmore, NY",-73.5390162,40.6903458,"{-73.560088,40.674137,-73.521099,40.706379}"
2021,3651528,place,"North Bellport, NY",-72.9456803,40.7868157,"{-72.966877,40.762706,-72.910284,40.813274}"
2021,3651561,place,"North Blenheim, NY",-74.4525577,42.47181,"{-74.465627,42.467428,-74.441157,42.475576}"
2021,3651583,place,"North Boston, NY",-78.7793461,42.6773218,"{-78.800384,42.661003,-78.751843,42.696559}"
2021,3651792,place,"North Collins, NY",-78.9369411,42.5948206,"{-78.943889,42.586422,-78.930141,42.603266}"
2021,3651847,place,"North Creek, NY",-73.9855213,43.6912888,"{-74.000387,43.675633,-73.969898,43.709396}"
2021,3651915,place,"Northeast Ithaca, NY",-76.4634005,42.4685704,"{-76.476194,42.459831,-76.44999,42.478967}"
2021,3652040,place,"North Gates, NY",-77.7070993,43.1715694,"{-77.732427,43.164482,-77.676218,43.179581}"
2021,3652067,place,"North Granville, NY",-73.3580921,43.4515157,"{-73.371507,43.441509,-73.33545,43.461403}"
2021,3652078,place,"North Great River, NY",-73.1630609,40.7561575,"{-73.19264,40.747346,-73.146995,40.772728}"
2021,3652188,place,"North Haven, NY",-72.3139972,41.0232629,"{-72.332677,41.002955,-72.297738,41.0409}"
2021,3653022,place,"North Hills, NY",-73.6778466,40.7764496,"{-73.703936,40.762193,-73.655277,40.7932}"
2021,3653055,place,"North Hornell, NY",-77.6605037,42.3454437,"{-77.668879,42.33686,-77.652871,42.353316}"
2021,3653198,place,"North Lindenhurst, NY",-73.3859684,40.7072215,"{-73.405979,40.69546,-73.363726,40.717817}"
2021,3653231,place,"North Lynbrook, NY",-73.6735875,40.668563,"{-73.676033,40.665624,-73.669844,40.672334}"
2021,3653253,place,"North Massapequa, NY",-73.4691216,40.7030072,"{-73.48621,40.681097,-73.449326,40.718276}"
2021,3653264,place,"North Merrick, NY",-73.5605766,40.6883686,"{-73.575946,40.674309,-73.54882,40.699066}"
2021,3653275,place,"North New Hyde Park, NY",-73.6877753,40.7457528,"{-73.704337,40.730192,-73.670959,40.758276}"
2021,3653319,place,"North Patchogue, NY",-73.0238888,40.784034,"{-73.042465,40.772339,-73.007584,40.795109}"
2021,3653396,place,"Northport, NY",-73.3449678,40.9040451,"{-73.361062,40.888472,-73.326549,40.919297}"
2021,3653462,place,"North Rose, NY",-76.886401,43.1872201,"{-76.90489,43.174515,-76.873419,43.198564}"
2021,3653561,place,"North Sea, NY",-72.4060404,40.9315432,"{-72.448635,40.896376,-72.368073,40.976887}"
2021,3653660,place,"North Syracuse, NY",-76.1303879,43.1338666,"{-76.14861,43.122448,-76.110944,43.145187}"
2021,3653682,place,"North Tonawanda, NY",-78.8712242,43.049157,"{-78.906252,43.018863,-78.825366,43.073825}"
2021,3653748,place,"North Valley Stream, NY",-73.7080766,40.6842621,"{-73.726503,40.675202,-73.67979,40.696886}"
2021,3653770,place,"Northville, NY",-74.158323,43.2196865,"{-74.188786,43.21393,-74.150882,43.23516}"
2021,3653775,place,"Northville, NY",-72.6302456,40.9755724,"{-72.664925,40.944723,-72.574273,41.002946}"
2021,3653792,place,"North Wantagh, NY",-73.5163598,40.6938775,"{-73.53188,40.690711,-73.48209,40.707896}"
2021,3653852,place,"Northwest Harbor, NY",-72.2203941,41.0137742,"{-72.287701,40.970057,-72.181923,41.046466}"
2021,3653853,place,"Northwest Ithaca, NY",-76.5351206,42.4585476,"{-76.562651,42.435265,-76.518312,42.480834}"
2021,3653979,place,"Norwich, NY",-75.5227584,42.5333218,"{-75.536278,42.513975,-75.506042,42.550656}"
2021,3654012,place,"Norwood, NY",-74.996674,44.7482996,"{-75.015664,44.730736,-74.978556,44.762964}"
2021,3654056,place,"Noyack, NY",-72.346015,40.9787055,"{-72.383227,40.961085,-72.272142,41.019685}"
2021,3654078,place,"Nunda, NY",-77.9379069,42.5799904,"{-77.951392,42.571257,-77.924088,42.589711}"
2021,3654100,place,"Nyack, NY",-73.9152358,41.0929498,"{-73.938488,41.082396,-73.89379,41.101044}"
2021,3654111,place,"Oak Beach, NY",-73.2764814,40.6385821,"{-73.31926,40.626653,-73.263286,40.655338}"
2021,3654144,place,"Oakdale, NY",-73.1346977,40.7377825,"{-73.158881,40.721618,-73.111962,40.755095}"
2021,3654155,place,"Oakfield, NY",-78.2710184,43.0649583,"{-78.278386,43.057638,-78.263556,43.071825}"
2021,3654430,place,"Ocean Beach, NY",-73.1565226,40.6462856,"{-73.160952,40.642664,-73.152146,40.649808}"
2021,3654441,place,"Oceanside, NY",-73.6377013,40.63302,"{-73.661943,40.609503,-73.613673,40.657434}"
2021,3654452,place,"Odessa, NY",-76.7881139,42.3349985,"{-76.802932,42.327046,-76.775545,42.342701}"
2021,3654485,place,"Ogdensburg, NY",-75.4632712,44.7091795,"{-75.520952,44.678846,-75.429336,44.742682}"
2021,3654540,place,"Olcott, NY",-78.719767,43.3307824,"{-78.748091,43.314366,-78.684404,43.346933}"
2021,3654551,place,"Old Bethpage, NY",-73.4583956,40.750823,"{-73.473981,40.734622,-73.435582,40.781606}"
2021,3654562,place,"Old Brookville, NY",-73.6051084,40.8364697,"{-73.625982,40.811805,-73.577008,40.855035}"
2021,3654617,place,"Old Field, NY",-73.1310444,40.9666734,"{-73.159108,40.944861,-73.090929,40.977217}"
2021,3654639,place,"Old Forge, NY",-74.9691223,43.7064014,"{-74.998635,43.69394,-74.957174,43.72171}"
2021,3654705,place,"Old Westbury, NY",-73.5975077,40.7865426,"{-73.625781,40.756605,-73.564602,40.8173}"
2021,3654716,place,"Olean, NY",-78.4351188,42.0839431,"{-78.463365,42.061236,-78.400519,42.104701}"
2021,3654837,place,"Oneida, NY",-75.6735612,43.070448,"{-75.709363,43.033219,-75.596668,43.151445}"
2021,3654848,place,"Oneida Castle, NY",-75.6330973,43.0812031,"{-75.641752,43.073423,-75.623293,43.087965}"
2021,3654881,place,"Oneonta, NY",-75.0668843,42.4548184,"{-75.109756,42.433641,-75.022694,42.477909}"
2021,3655002,place,"Ontario, NY",-77.2806389,43.2180357,"{-77.306187,43.202946,-77.252036,43.231241}"
2021,3655167,place,"Orangeburg, NY",-73.9407629,41.0487287,"{-73.965384,41.032407,-73.921983,41.070437}"
2021,3655189,place,"Orange Lake, NY",-74.0981853,41.5363773,"{-74.131403,41.505804,-74.073475,41.577338}"
2021,3655266,place,"Orchard Park, NY",-78.7413665,42.7621982,"{-78.758835,42.749763,-78.72213,42.774059}"
2021,3655321,place,"Orient, NY",-72.2493835,41.148888,"{-72.324742,41.106331,-72.224543,41.169505}"
2021,3655365,place,"Oriskany, NY",-75.3335175,43.1567651,"{-75.346927,43.147281,-75.32065,43.166861}"
2021,3655376,place,"Oriskany Falls, NY",-75.4636098,42.9379897,"{-75.474139,42.932761,-75.456499,42.944912}"
2021,3655530,place,"Ossining, NY",-73.8705865,41.1534896,"{-73.909281,41.13662,-73.830533,41.185598}"
2021,3655574,place,"Oswego, NY",-76.5036887,43.4580517,"{-76.539377,43.428091,-76.46932,43.492722}"
2021,3655618,place,"Otego, NY",-75.1800706,42.3927987,"{-75.200595,42.380101,-75.1636,42.404204}"
2021,3655673,place,"Otisville, NY",-74.5397089,41.4714384,"{-74.552947,41.46174,-74.527621,41.479552}"
2021,3655750,place,"Otter Lake, NY",-75.1173638,43.5927255,"{-75.126776,43.58295,-75.107787,43.604125}"
2021,3655816,place,"Ovid, NY",-76.8228967,42.6756478,"{-76.828187,42.669839,-76.81783,42.682481}"
2021,3655882,place,"Owego, NY",-76.2622269,42.1045599,"{-76.279042,42.085938,-76.241542,42.120933}"
2021,3655937,place,"Oxbow, NY",-75.626406,44.288352,"{-75.63705,44.281855,-75.615695,44.296929}"
2021,3655948,place,"Oxford, NY",-75.5958784,42.4411606,"{-75.609651,42.431035,-75.582237,42.451526}"
2021,3655992,place,"Oyster Bay, NY",-73.5310531,40.8680567,"{-73.543027,40.849804,-73.517667,40.883698}"
2021,3656011,place,"Oyster Bay Cove, NY",-73.5053788,40.8604959,"{-73.525616,40.834029,-73.482631,40.878881}"
2021,3656088,place,"Painted Post, NY",-77.0923838,42.1637619,"{-77.10504,42.147399,-77.084882,42.180421}"
2021,3656110,place,"Palatine Bridge, NY",-74.577543,42.9157542,"{-74.595521,42.907826,-74.558489,42.924245}"
2021,3656132,place,"Palenville, NY",-74.0289693,42.185727,"{-74.042393,42.162134,-74.002519,42.196955}"
2021,3656187,place,"Palmyra, NY",-77.2297192,43.0608641,"{-77.24708,43.051213,-77.213368,43.068738}"
2021,3656212,place,"Pamelia Center, NY",-75.9032822,44.0355579,"{-75.915519,44.011836,-75.888746,44.05428}"
2021,3656231,place,"Panama, NY",-79.4871888,42.0685714,"{-79.499363,42.063744,-79.470458,42.085643}"
2021,3656291,place,"Parc, NY",-73.4529532,44.6638297,"{-73.465516,44.645806,-73.442437,44.678956}"
2021,3656341,place,"Parish, NY",-76.1263699,43.4058024,"{-76.144063,43.394165,-76.103539,43.416292}"
2021,3656363,place,"Parishville, NY",-74.7927319,44.6297194,"{-74.822585,44.610478,-74.7809,44.642514}"
2021,3656660,place,"Patchogue, NY",-73.019773,40.7637098,"{-73.037962,40.745614,-73.002487,40.778137}"
2021,3656770,place,"Paul Smiths, NY",-74.2508292,44.4333981,"{-74.262975,44.429658,-74.242711,44.438392}"
2021,3656781,place,"Pavilion, NY",-78.0218603,42.8823672,"{-78.048599,42.864328,-78.006451,42.909216}"
2021,3656814,place,"Pawling, NY",-73.5993385,41.5636087,"{-73.613197,41.551265,-73.584317,41.575552}"
2021,3656869,place,"Peach Lake, NY",-73.5769451,41.3705366,"{-73.595042,41.352254,-73.559887,41.388333}"
2021,3656902,place,"Pearl River, NY",-74.0078322,41.0615606,"{-74.050852,41.030797,-73.967205,41.080262}"
2021,3656968,place,"Peconic, NY",-72.4644192,41.0390672,"{-72.506525,41.017827,-72.435577,41.06026}"
2021,3656979,place,"Peekskill, NY",-73.9235971,41.2873963,"{-73.957183,41.267407,-73.889325,41.307925}"
2021,3657001,place,"Pelham, NY",-73.8077044,40.9110803,"{-73.815361,40.901982,-73.799902,40.926132}"
2021,3657023,place,"Pelham Manor, NY",-73.8059277,40.8930678,"{-73.823319,40.881078,-73.783702,40.902806}"
2021,3657177,place,"Penn Yan, NY",-77.0530713,42.6607144,"{-77.087047,42.644721,-77.034193,42.676564}"
2021,3657243,place,"Perry, NY",-78.0074061,42.7172212,"{-78.02552,42.702735,-77.979087,42.730403}"
2021,3657287,place,"Perrysburg, NY",-79.0010769,42.4584909,"{-79.011352,42.452143,-78.990384,42.465783}"
2021,3657364,place,"Peru, NY",-73.5332919,44.5793261,"{-73.55415,44.564432,-73.514071,44.59375}"
2021,3657518,place,"Phelps, NY",-77.0621205,42.9580576,"{-77.07682,42.949725,-77.044528,42.96637}"
2021,3657551,place,"Philadelphia, NY",-75.7097899,44.1539885,"{-75.72061,44.143463,-75.698747,44.165211}"
2021,3657639,place,"Philmont, NY",-73.6469017,42.249004,"{-73.658038,42.237374,-73.633851,42.257363}"
2021,3657650,place,"Phoenicia, NY",-74.314328,42.0831538,"{-74.318858,42.065542,-74.300737,42.089024}"
2021,3657661,place,"Phoenix, NY",-76.2958046,43.2308971,"{-76.312261,43.219028,-76.281977,43.243831}"
2021,3657749,place,"Piermont, NY",-73.9108308,41.041851,"{-73.928488,41.028992,-73.895923,41.051955}"
2021,3657782,place,"Pierrepont Manor, NY",-76.0629666,43.7388461,"{-76.074529,43.729152,-76.044525,43.746025}"
2021,3657804,place,"Piffard, NY",-77.8583967,42.8318539,"{-77.869028,42.823671,-77.844836,42.840117}"
2021,3657815,place,"Pike, NY",-78.1475599,42.5539936,"{-78.170214,42.544632,-78.133517,42.57157}"
2021,3657980,place,"Pine Bush, NY",-74.296524,41.6095451,"{-74.326502,41.59835,-74.271614,41.628151}"
2021,3658057,place,"Pine Hill, NY",-74.473791,42.1327988,"{-74.494653,42.102246,-74.4398,42.149205}"
2021,3658145,place,"Pine Plains, NY",-73.6581969,41.9776775,"{-73.682342,41.965254,-73.638279,41.995186}"
2021,3658189,place,"Pine Valley, NY",-76.8480357,42.2302805,"{-76.85821,42.214671,-76.836954,42.243045}"
2021,3658354,place,"Pittsford, NY",-77.5165703,43.0904921,"{-77.528225,43.084122,-77.508196,43.096967}"
2021,3658409,place,"Plainedge, NY",-73.4769932,40.724009,"{-73.491069,40.71185,-73.459436,40.734312}"
2021,3658442,place,"Plainview, NY",-73.4731175,40.7817708,"{-73.50367,40.761599,-73.444096,40.805436}"
2021,3658475,place,"Plandome, NY",-73.7016304,40.8065791,"{-73.711458,40.802299,-73.687383,40.81223}"
2021,3658486,place,"Plandome Heights, NY",-73.7049008,40.8020725,"{-73.711567,40.799779,-73.695977,40.805271}"
2021,3658497,place,"Plandome Manor, NY",-73.6986987,40.8129088,"{-73.710482,40.808745,-73.687035,40.820835}"
2021,3658541,place,"Plattekill, NY",-74.0585958,41.6197877,"{-74.084578,41.600437,-74.03696,41.636158}"
2021,3658574,place,"Plattsburgh, NY",-73.4564144,44.6955627,"{-73.483924,44.667204,-73.42954,44.725093}"
2021,3658601,place,"Plattsburgh West, NY",-73.5052401,44.6827557,"{-73.521527,44.669113,-73.490363,44.696627}"
2021,3658684,place,"Pleasant Valley, NY",-73.8262935,41.7462575,"{-73.839861,41.735618,-73.814728,41.756442}"
2021,3658728,place,"Pleasantville, NY",-73.7841501,41.1340059,"{-73.802065,41.126306,-73.760444,41.155064}"
2021,3658739,place,"Plessis, NY",-75.8574875,44.273537,"{-75.863024,44.265254,-75.850855,44.281165}"
2021,3658794,place,"Poestenkill, NY",-73.5531547,42.6941852,"{-73.583696,42.670716,-73.525724,42.712194}"
2021,3658849,place,"Point Lookout, NY",-73.5794097,40.5906336,"{-73.587204,40.585275,-73.574114,40.595867}"
2021,3658937,place,"Poland, NY",-75.0626984,43.2256629,"{-75.073422,43.216622,-75.050707,43.232516}"
2021,3658992,place,"Pomona, NY",-74.0542491,41.1891528,"{-74.074958,41.165854,-74.036814,41.213813}"
2021,3659157,place,"Poquott, NY",-73.0908771,40.9530438,"{-73.100416,40.945526,-73.07824,40.959522}"
2021,3659212,place,"Port Byron, NY",-76.625304,43.0370936,"{-76.635757,43.028931,-76.613847,43.044593}"
2021,3659223,place,"Port Chester, NY",-73.6671746,41.0047007,"{-73.679656,40.985499,-73.655241,41.025144}"
2021,3659245,place,"Port Dickinson, NY",-75.8944105,42.1356413,"{-75.901635,42.125672,-75.878641,42.144081}"
2021,3659311,place,"Port Ewen, NY",-73.9772431,41.9041621,"{-73.998992,41.881225,-73.961101,41.921372}"
2021,3659322,place,"Port Gibson, NY",-77.1551967,43.0333945,"{-77.1726,43.025131,-77.14147,43.039868}"
2021,3659333,place,"Port Henry, NY",-73.4612652,44.0453766,"{-73.476256,44.030783,-73.446797,44.059493}"
2021,3659355,place,"Port Jefferson, NY",-73.0527991,40.9421766,"{-73.082909,40.933052,-73.038002,40.966536}"
2021,3659377,place,"Port Jefferson Station, NY",-73.0651855,40.9259394,"{-73.094598,40.909421,-73.031177,40.93642}"
2021,3659388,place,"Port Jervis, NY",-74.6908016,41.378021,"{-74.713112,41.356386,-74.672416,41.393924}"
2021,3659443,place,"Portlandville, NY",-74.9631574,42.5369996,"{-74.978995,42.521947,-74.960099,42.538169}"
2021,3659454,place,"Port Leyden, NY",-75.341412,43.5853999,"{-75.354576,43.578431,-75.329846,43.590774}"
2021,3659498,place,"Portville, NY",-78.3372563,42.0367059,"{-78.347325,42.026972,-78.326326,42.043594}"
2021,3659520,place,"Port Washington, NY",-73.6800082,40.8274515,"{-73.721775,40.805106,-73.649673,40.853973}"
2021,3659531,place,"Port Washington North, NY",-73.700058,40.8430465,"{-73.708236,40.834381,-73.690487,40.850632}"
2021,3659564,place,"Potsdam, NY",-74.9834628,44.6708309,"{-75.021608,44.649463,-74.936813,44.69721}"
2021,3659619,place,"Pottersville, NY",-73.8215174,43.7379867,"{-73.849062,43.721544,-73.801775,43.754048}"
2021,3659641,place,"Poughkeepsie, NY",-73.9198692,41.6945945,"{-73.946682,41.670266,-73.89066,41.716976}"
2021,3659708,place,"Prattsburgh, NY",-77.2883155,42.5247953,"{-77.309297,42.510076,-77.27455,42.536063}"
2021,3659740,place,"Prattsville, NY",-74.4287205,42.347243,"{-74.438647,42.302389,-74.39894,42.362194}"
2021,3659831,place,"Preston-Potter Hollow, NY",-74.228759,42.4330395,"{-74.264863,42.407127,-74.175424,42.470182}"
2021,3659883,place,"Prospect, NY",-75.1525255,43.302212,"{-75.16055,43.294041,-75.142442,43.308317}"
2021,3659960,place,"Pulaski, NY",-76.1260345,43.5655042,"{-76.147221,43.541754,-76.10721,43.580316}"
2021,3659993,place,"Pultneyville, NY",-77.1723628,43.2737242,"{-77.200956,43.262729,-77.15673,43.286351}"
2021,3660103,place,"Putnam Lake, NY",-73.5504868,41.4742649,"{-73.578348,41.449179,-73.532606,41.498729}"
2021,3660408,place,"Quiogue, NY",-72.6281501,40.8196959,"{-72.640752,40.801207,-72.615173,40.833468}"
2021,3660422,place,"Quogue, NY",-72.5989033,40.821406,"{-72.622924,40.802323,-72.566418,40.842882}"
2021,3660455,place,"Radisson, NY",-76.2991746,43.1824558,"{-76.322254,43.162606,-76.276329,43.205707}"
2021,3660576,place,"Randolph, NY",-78.9796899,42.1622897,"{-79.001145,42.150099,-78.956435,42.17301}"
2021,3660598,place,"Ransomville, NY",-78.9128628,43.2396237,"{-78.937817,43.220098,-78.89029,43.26395}"
2021,3660609,place,"Rapids, NY",-78.6440651,43.0976261,"{-78.667223,43.080589,-78.617572,43.110858}"
2021,3660675,place,"Ravena, NY",-73.8112139,42.4755465,"{-73.827176,42.461179,-73.79956,42.502476}"
2021,3660829,place,"Red Creek, NY",-76.7228518,43.247903,"{-76.732013,43.241163,-76.712825,43.256543}"
2021,3660884,place,"Redford, NY",-73.8089051,44.6064973,"{-73.838943,44.594889,-73.779574,44.623708}"
2021,3660895,place,"Red Hook, NY",-73.8765115,41.9957853,"{-73.888089,41.9865,-73.86489,42.004358}"
2021,3660983,place,"Red Oaks Mill, NY",-73.8734435,41.6509593,"{-73.895016,41.636933,-73.854842,41.667358}"
2021,3661016,place,"Redwood, NY",-75.8078802,44.2981884,"{-75.832328,44.286078,-75.781355,44.321003}"
2021,3661115,place,"Remsen, NY",-75.1869927,43.3282165,"{-75.192583,43.321628,-75.18178,43.335149}"
2021,3661142,place,"Remsenburg-Speonk, NY",-72.705765,40.8162326,"{-72.728408,40.796707,-72.689932,40.847697}"
2021,3661148,place,"Rensselaer, NY",-73.7325135,42.64574,"{-73.759565,42.614178,-73.702388,42.670179}"
2021,3661159,place,"Rensselaer Falls, NY",-75.3197948,44.5907701,"{-75.327713,44.585387,-75.310909,44.596409}"
2021,3661236,place,"Retsof, NY",-77.8757479,42.8324357,"{-77.885628,42.82734,-77.867495,42.837221}"
2021,3661346,place,"Rhinebeck, NY",-73.9102837,41.928804,"{-73.921204,41.91853,-73.896729,41.939692}"
2021,3661368,place,"Rhinecliff, NY",-73.9410581,41.9243685,"{-73.955082,41.911901,-73.935896,41.93638}"
2021,3661434,place,"Richburg, NY",-78.1565122,42.0887648,"{-78.16783,42.080443,-78.146381,42.097537}"
